city,country,lat,lng
Puerto Williams,Chile,-54.9333,-67.6167
Ushuaia,Argentina,-54.8019,-68.3031
Kaiken,Argentina,-54.5062,-67.1905
King Edward Point,South Georgia And South Sandwich Islands,-54.2833,-36.5
Grytviken,South Georgia and South Sandwich Islands,-54.2806,-36.508
Ro Grande,Argentina,-53.7833,-67.7
Punta Arenas,Chile,-53.1667,-70.9333
Puerto Natales,Chile,-51.7333,-72.5167
Stanley,Falkland Islands (Islas Malvinas),-51.7,-57.85
Veintiocho de Noviembre,Argentina,-51.65,-72.3
Ro Gallegos,Argentina,-51.6233,-69.2161
Yacimiento Ro Turbio,Argentina,-51.5333,-72.3
El Calafate,Argentina,-50.3378,-72.26
Comandante Luis Piedra Buena,Argentina,-49.983,-68.91
San Julin,Argentina,-49.3,-67.7167
Gobernador Gregores,Argentina,-48.7667,-70.25
Villa OHiggins,Chile,-48.4683,-72.56
Puerto Deseado,Argentina,-47.75,-65.9167
Cochrane,Chile,-47.2547,-72.575
Halfmoon Bay,New Zealand,-46.899,168.127
Pico Truncado,Argentina,-46.795,-67.955
Perito Moreno,Argentina,-46.5886,-70.9242
Las Heras,Argentina,-46.55,-68.95
Caleta Olivia,Argentina,-46.4333,-67.5333
Invercargill,New Zealand,-46.429,168.362
Glencoe,New Zealand,-46.192,168.646
Rada Tilly,Argentina,-45.9333,-67.5333
Mosgiel,New Zealand,-45.875,170.348
Dunedin,New Zealand,-45.8742,170.5036
Comodoro Rivadavia,Argentina,-45.8647,-67.4808
Ro Mayo,Argentina,-45.6869,-70.26
Sarmiento,Argentina,-45.6,-69.0833
Coyhaique,Chile,-45.5667,-72.0667
Te Anau,New Zealand,-45.415,167.716
Puerto Aysn,Chile,-45.4,-72.6833
Alto Ro Senguer,Argentina,-45.0167,-70.8167
Macetown,New Zealand,-44.865,168.819
Wanaka,New Zealand,-44.7081,169.1239
Timaru,New Zealand,-44.3931,171.2508
Ashton,New Zealand,-44.033,171.772
Waitangi,New Zealand,-43.9514,-176.5611
Rolleston,New Zealand,-43.596,172.383
Christchurch,New Zealand,-43.5311,172.6361
Kairaki,New Zealand,-43.385,172.703
Rawson,Argentina,-43.3,-65.1
Trelew,Argentina,-43.25,-65.3
Quelln,Chile,-43.0992,-73.5961
Kingston,Australia,-42.9769,147.3083
Esquel,Argentina,-42.9,-71.3167
Hobart,Australia,-42.8806,147.325
Puerto Madryn,Argentina,-42.7667,-65.05
Hokitika,New Zealand,-42.7167,170.9667
Chonchi,Chile,-42.6219,-73.7742
Castro,Chile,-42.4667,-73.8
Greymouth,New Zealand,-42.45,171.2075
Kaikoura,New Zealand,-42.4,173.6814
Telsen,Argentina,-42.3833,-66.95
Oatlands,Australia,-42.3,147.3706
Gastre,Argentina,-42.2667,-69.2167
Hualaihu,Chile,-42.1,-72.4167
Queenstown,Australia,-42.0806,145.5556
El Maitn,Argentina,-42.05,-71.1667
El Bolsn,Argentina,-41.9667,-71.5333
Ancud,Chile,-41.8667,-73.8333
Bicheno,Australia,-41.8667,148.2833
Calbuco,Chile,-41.7667,-73.1333
Westport,New Zealand,-41.755,171.599
Maulln,Chile,-41.6167,-73.6
Blenheim,New Zealand,-41.5167,173.95
Puerto Montt,Chile,-41.4667,-72.9333
Launceston,Australia,-41.4419,147.145
Alerce,Chile,-41.4,-72.9333
Los Muermos,Chile,-41.4,-73.4833
Richmond,New Zealand,-41.3333,173.1833
Puerto Varas,Chile,-41.3167,-72.9833
Ingeniero Jacobacci,Argentina,-41.3,-69.5833
Nelson,New Zealand,-41.2931,173.2381
Wellington,New Zealand,-41.2889,174.7772
Llanquihue,Chile,-41.2581,-73.0086
Lower Hutt,New Zealand,-41.2167,174.9167
Devonport,Australia,-41.18,146.3503
Scottsdale,Australia,-41.1611,147.5164
San Carlos de Bariloche,Argentina,-41.15,-71.3
Porirua,New Zealand,-41.1333,174.85
Upper Hutt,New Zealand,-41.1333,175.05
Frutillar,Chile,-41.1228,-73.0581
Frutillar Alto,Chile,-41.0872,-73.0956
Los Bajos,Chile,-41.0698,-72.9317
Burnie,Australia,-41.0636,145.8753
Comallo,Argentina,-41.0333,-70.2667
Masterton,New Zealand,-40.9667,175.65
Puerto Octay,Chile,-40.9667,-72.9
Purranque,Chile,-40.9167,-73.1667
Paraparaumu,New Zealand,-40.9144,175.0056
Paraparaumu Beach,New Zealand,-40.888,174.983
Waikanae,New Zealand,-40.876,175.064
Smithton,Australia,-40.8417,145.125
Viedma,Argentina,-40.8,-63.0
Carmen de Patagones,Argentina,-40.7833,-62.9667
Ro Negro,Chile,-40.7833,-73.2
Villa La Angostura,Argentina,-40.7625,-71.6463
San Antonio Oeste,Argentina,-40.7333,-64.95
Puyehue,Chile,-40.6833,-72.6
Levin,New Zealand,-40.6333,175.275
Sierra Colorada,Argentina,-40.5833,-67.8
Osorno,Chile,-40.5725,-73.1353
San Juan de la Costa,Chile,-40.5167,-73.4
San Pablo,Chile,-40.4,-73.0167
Palmerston North,New Zealand,-40.3549,175.6095
Ro Bueno,Chile,-40.3167,-72.9667
Lago Ranco,Chile,-40.3167,-72.5
La Unin,Chile,-40.2833,-73.0833
Feilding,New Zealand,-40.225,175.565
San Martn de los Andes,Argentina,-40.1667,-71.35
Futrono,Chile,-40.1333,-72.4
General Conesa,Argentina,-40.1,-64.4167
Paillaco,Chile,-40.0667,-72.8833
Whanganui,New Zealand,-39.9325,175.0519
Junn de los Andes,Argentina,-39.9167,-71.0667
Villalonga,Argentina,-39.8829,-62.5833
Los Lagos,Chile,-39.85,-72.8333
Valdivia,Chile,-39.8139,-73.2458
Havelock North,New Zealand,-39.6667,176.8833
Panguipulli,Chile,-39.6444,-72.3306
Hawera,New Zealand,-39.589,174.282
Pedro Luro,Argentina,-39.5,-62.6833
Napier,New Zealand,-39.4903,176.9178
Lanco,Chile,-39.45,-72.7833
Loncoche,Chile,-39.3667,-72.6333
Stratford,New Zealand,-39.341,174.284
Pucn,Chile,-39.2767,-71.9744
Villarrica,Chile,-39.2667,-72.2167
Choele Choel,Argentina,-39.2667,-65.6833
Toltn,Chile,-39.2166,-73.2123
Nueva Toltn,Chile,-39.1786,-73.1656
Villa Regina,Argentina,-39.1,-67.0667
Gorbea,Chile,-39.1,-72.6833
New Plymouth,New Zealand,-39.0578,174.0742
General Roca,Argentina,-39.0333,-67.5833
Senillosa,Argentina,-39.01,-68.43
Teodoro Schmidt,Chile,-38.9949,-73.0894
Ro Colorado,Argentina,-38.9908,-64.0958
Turangi,New Zealand,-38.989,175.81
Pitrufqun,Chile,-38.9833,-72.65
Balneario Monte Hermoso,Argentina,-38.9833,-61.3
Allen,Argentina,-38.9667,-67.8333
Freire,Chile,-38.9558,-72.6256
Neuqun,Argentina,-38.9525,-68.0642
Plottier,Argentina,-38.95,-68.2333
Plaza Huincul,Argentina,-38.9338,-69.1987
Cipolletti,Argentina,-38.9333,-67.9833
Cutral-C,Argentina,-38.9333,-69.2333
Cunco,Chile,-38.9167,-72.0333
Zapala,Argentina,-38.9,-70.0667
Punta Alta,Argentina,-38.88,-62.075
Cinco Saltos,Argentina,-38.8167,-68.0667
Centenario,Argentina,-38.8,-68.1333
Padre Las Casas,Chile,-38.7667,-72.6
Ingeniero White,Argentina,-38.7667,-62.2667
Nueva Imperial,Chile,-38.7433,-72.95
Temuco,Chile,-38.7333,-72.6667
Baha Blanca,Argentina,-38.7167,-62.2667
Carahue,Chile,-38.7089,-73.1647
Coronel Dorrego,Argentina,-38.7,-61.2667
Taupo,New Zealand,-38.69,176.08
Gisborne,New Zealand,-38.6625,178.0178
Vilcn,Chile,-38.65,-72.2333
Wonthaggi,Australia,-38.6056,145.5917
Cholchol,Chile,-38.6,-72.8333
Las Lajas,Argentina,-38.6,-70.3
Necochea,Argentina,-38.55,-58.7333
Lautaro,Chile,-38.5167,-72.45
Curacautn,Chile,-38.4333,-71.8833
Lonquimay,Chile,-38.4333,-71.2333
Galvarino,Chile,-38.4,-72.7833
Warrnambool,Australia,-38.3833,142.4833
Tres Arroyos,Argentina,-38.3667,-60.2667
Tira,Chile,-38.3414,-73.4911
Colac,Australia,-38.3403,143.5847
Torquay,Australia,-38.3333,144.3167
Portland,Australia,-38.3333,141.6
Miramar,Argentina,-38.2667,-57.8333
Traigun,Chile,-38.25,-72.6833
Barwon Heads,Australia,-38.25,144.5167
Victoria,Chile,-38.2333,-72.3333
Morwell,Australia,-38.2333,146.4
Somerville,Australia,-38.226,145.177
Tokoroa,New Zealand,-38.22,175.872
Traralgon,Australia,-38.1958,146.5403
Leopold,Australia,-38.1892,144.4644
Mount Eliza,Australia,-38.189,145.092
Moe,Australia,-38.1722,146.2678
Geelong,Australia,-38.15,144.35
Warragul,Australia,-38.15,145.9333
Lumaco,Chile,-38.15,-72.9167
Rotorua,New Zealand,-38.1378,176.2514
Frankston,Australia,-38.1333,145.1167
Drouin,Australia,-38.1333,145.85
Lobera,Argentina,-38.1333,-58.7667
Sale,Australia,-38.1,147.0667
Tornquist,Argentina,-38.1,-62.2167
Cranbourne,Australia,-38.0996,145.2834
Pakenham,Australia,-38.0712,145.4878
Adolfo Gonzles Chaves,Argentina,-38.0333,-60.0833
Purn,Chile,-38.0319,-73.0728
Lara,Australia,-38.0167,144.4167
Te Awamutu,New Zealand,-38.0083,175.325
Batn,Argentina,-38.0078,-57.7097
Mar del Plata,Argentina,-38.0,-57.55
Dandenong,Australia,-37.981,145.215
Whakatane,New Zealand,-37.964,176.984
Collipulli,Chile,-37.95,-72.4333
Cambridge,New Zealand,-37.8833,175.4667
Catriel,Argentina,-37.8667,-67.8333
Balcarce,Argentina,-37.8456,-58.2578
Mount Gambier,Australia,-37.8294,140.7828
Bairnsdale,Australia,-37.8275,147.625
Melbourne,Australia,-37.8142,144.9631
Angol,Chile,-37.8,-72.7167
Caete,Chile,-37.7994,-73.3953
Hamilton,New Zealand,-37.7833,175.2833
Saavedra,Argentina,-37.7833,-62.35
Mount Evelyn,Australia,-37.783,145.385
Veinticinco de Mayo,Argentina,-37.7712,-67.7174
Hamilton,Australia,-37.7333,142.0167
Mulchn,Chile,-37.7167,-72.2333
Darregueira,Argentina,-37.6996,-63.1666
Tauranga,New Zealand,-37.6858,176.1667
Melton,Australia,-37.6833,144.5833
Santa Brbara,Chile,-37.6706,-72.0214
Benito Jurez,Argentina,-37.6667,-59.7833
Renaico,Chile,-37.6667,-72.5833
Los lamos,Chile,-37.6272,-73.4619
Pig,Argentina,-37.6167,-62.4167
Lebu,Chile,-37.6,-73.6667
Wollert,Australia,-37.597,145.033
Negrete,Chile,-37.5833,-72.5333
Sunbury,Australia,-37.5811,144.7139
Ballarat,Australia,-37.5608,143.8475
Puan,Argentina,-37.55,-62.7667
Nacimiento,Chile,-37.5,-72.6667
Gisborne,Australia,-37.49,144.5889
Curanilahue,Chile,-37.4764,-73.3444
Los ngeles,Chile,-37.4667,-72.35
Coronel Surez,Argentina,-37.4667,-61.9333
Wallan,Australia,-37.4167,144.9833
Chos Malal,Argentina,-37.3833,-70.2667
General Acha,Argentina,-37.3833,-64.6
Penola,Australia,-37.3786,140.8362
Tandil,Argentina,-37.3167,-59.1333
Tucapel,Chile,-37.2833,-71.95
Ararat,Australia,-37.2833,142.9167
Laja,Chile,-37.2667,-72.7
Villa Gesell,Argentina,-37.25,-56.9833
Arauco,Chile,-37.25,-73.3167
Waiuku,New Zealand,-37.25,174.7333
Pukekohe East,New Zealand,-37.195,174.9481
Carhu,Argentina,-37.1796,-62.7601
Santa Juana,Chile,-37.166,-72.933
Thames,New Zealand,-37.1384,175.5405
Yumbel,Chile,-37.1333,-72.5333
Ayacucho,Argentina,-37.1333,-58.4667
Yungay,Chile,-37.1194,-72.0189
Pinamar,Argentina,-37.1,-56.85
Lota,Chile,-37.0833,-73.1667
Edinburgh of the Seven Seas,"Saint Helena, Ascension, and Tristan da Cunha",-37.0675,-12.3105
Maryborough,Australia,-37.05,143.735
Stawell,Australia,-37.05,142.7667
Cabrero,Chile,-37.0333,-72.4
Seymour,Australia,-37.03,145.13
Coronel,Chile,-37.0167,-73.2167
General Juan Madariaga,Argentina,-37.0167,-57.1333
Manukau City,New Zealand,-37.0,174.885
Hualqui,Chile,-36.96,-72.93
Chiguayante,Chile,-36.9167,-73.0167
Olavarra,Argentina,-36.9,-60.3333
Merimbula,Australia,-36.8981,149.9011
Maip,Argentina,-36.8667,-57.8667
Auckland,New Zealand,-36.8492,174.7653
Waitakere,New Zealand,-36.849,174.543
Concepcin,Chile,-36.8282,-73.0514
Florida,Chile,-36.8167,-72.6667
Kingston South East,Australia,-36.8167,139.85
Northcote,New Zealand,-36.8019,174.7494
Azul,Argentina,-36.7833,-59.85
Kangaroo Flat,Australia,-36.7833,144.2333
Rauch,Argentina,-36.7667,-59.1
Bendigo,Australia,-36.75,144.2667
Huachipato,Chile,-36.7481,-73.0986
Bulnes,Chile,-36.7425,-72.2983
Penco,Chile,-36.7333,-72.9833
Mar de Aj,Argentina,-36.7203,-56.6878
Talcahuano,Chile,-36.7167,-73.1219
Horsham,Australia,-36.7167,142.2
Pinto,Chile,-36.7036,-71.8922
Chilln Viejo,Chile,-36.6239,-72.1358
Santa Rosa,Argentina,-36.6167,-64.2833
Tom,Chile,-36.6167,-72.95
Chilln,Chile,-36.6,-72.1167
San Javier,Chile,-36.6,-71.75
Daireaux,Argentina,-36.6,-61.75
Benalla,Australia,-36.5519,145.9817
San Nicols,Chile,-36.5033,-72.2122
Coelemu,Chile,-36.4878,-72.7028
Shepparton,Australia,-36.3833,145.4
Wangaratta,Australia,-36.3583,146.3125
Dolores,Argentina,-36.3167,-57.6667
Bordertown,Australia,-36.3118,140.7702
iqun,Chile,-36.3,-71.9
Chanco,Chile,-36.2859,-72.7107
Quirihue,Chile,-36.2833,-72.5333
Henderson,Argentina,-36.2833,-61.7167
Chanco,Chile,-36.2667,-72.7167
Cooma,Australia,-36.235,149.1258
Victorica,Argentina,-36.2167,-65.45
Parral,Chile,-36.15,-71.8333
Echuca,Australia,-36.1333,144.75
Wodonga,Australia,-36.1214,146.8881
Albury,Australia,-36.0806,146.9158
Retiro,Chile,-36.0333,-71.7667
General Alvear,Argentina,-36.0333,-60.0167
Las Flores,Argentina,-36.0139,-59.1
Trenque Lauquen,Argentina,-35.9667,-62.7
Cauquenes,Chile,-35.9667,-72.35
Longav,Chile,-35.9667,-71.6833
Cobram,Australia,-35.9667,145.65
Linares,Chile,-35.85,-71.6
Pehuaj,Argentina,-35.8,-61.9
General Belgrano,Argentina,-35.7667,-58.5
Yerbas Buenas,Chile,-35.75,-71.5667
Whangarei,New Zealand,-35.725,174.3236
Batemans Bay,Australia,-35.7081,150.1744
Colbn,Chile,-35.7,-71.4167
Meningie,Australia,-35.6883,139.3378
Villa Alegre,Chile,-35.6747,-71.7439
General Pico,Argentina,-35.6667,-63.7333
Carlos Casares,Argentina,-35.6167,-61.3667
Chascoms,Argentina,-35.575,-58.0089
San Clemente,Chile,-35.55,-71.4833
Victor Harbor,Australia,-35.55,138.6167
Maule,Chile,-35.5333,-71.7
Ranchos,Argentina,-35.5333,-58.2833
Deniliquin,Australia,-35.5297,144.9569
Malarge,Argentina,-35.475,-69.5833
Nueve de Julio,Argentina,-35.45,-60.8833
Talca,Chile,-35.4269,-71.6656
Veinticinco de Mayo,Argentina,-35.4167,-60.1667
Roque Prez,Argentina,-35.4167,-59.3167
Queanbeyan,Australia,-35.3533,149.2342
Ulladulla,Australia,-35.3486,150.4678
Constitucin,Chile,-35.3333,-72.4167
Swan Hill,Australia,-35.3333,143.55
Tumut,Australia,-35.3047,148.2228
Canberra,Australia,-35.2931,149.1269
Punta Indio,Argentina,-35.2667,-57.2167
Kerikeri,New Zealand,-35.2244,173.9514
Lobos,Argentina,-35.1833,-59.0833
Brandsen,Argentina,-35.1667,-58.2167
Wagga Wagga,Australia,-35.1189,147.3689
Murray Bridge,Australia,-35.117,139.267
Bragado,Argentina,-35.1167,-60.5
Molina,Chile,-35.1144,-71.2825
Kaitaia,New Zealand,-35.1125,173.2628
Curepto,Chile,-35.0833,-72.0167
Magdalena,Argentina,-35.0833,-57.5167
Mount Barker,Australia,-35.0667,138.85
Ouyen,Australia,-35.0667,142.3167
General Villegas,Argentina,-35.0333,-63.0167
Cauelas,Argentina,-35.0333,-58.7333
Albany,Australia,-35.0228,117.8814
San Vicente,Argentina,-35.0167,-58.4167
Navarro,Argentina,-35.0167,-59.2667
General Viamonte,Argentina,-35.0,-61.0333
Sagrada Familia,Chile,-35.0,-71.3833
Curic,Chile,-34.9833,-71.2333
Hualae,Chile,-34.9765,-71.8048
General Alvear,Argentina,-34.9667,-67.7
Alejandro Korn,Argentina,-34.9667,-58.3667
Punta del Este,Uruguay,-34.9667,-54.95
Melchor Romero,Argentina,-34.9492,-58.0472
General Las Heras,Argentina,-34.9333,-58.95
Bellavista,Chile,-34.9333,-71.3167
Adelaide,Australia,-34.9275,138.6
La Plata,Argentina,-34.9211,-57.9544
Guernica,Argentina,-34.9167,-58.3833
Rauco,Chile,-34.9167,-71.3167
Montevideo,Uruguay,-34.9056,-56.1842
Maldonado,Uruguay,-34.9,-54.95
Chivilcoy,Argentina,-34.9,-60.0167
Piripolis,Uruguay,-34.9,-55.2833
Tolosa,Argentina,-34.8942,-57.9647
Glew,Argentina,-34.8833,-58.3833
Carlos Spegazzini,Argentina,-34.8833,-58.5667
Nowra,Australia,-34.8808,150.6075
Berisso,Argentina,-34.8728,-57.8858
Paso de Carrasco,Uruguay,-34.8714,-56.0272
Ensenada Berisso,Argentina,-34.8667,-57.9
Teno,Chile,-34.8667,-71.1833
Ensenada,Argentina,-34.8644,-57.9103
Villa Elisa,Argentina,-34.8533,-58.0792
Longchamps,Argentina,-34.85,-58.3833
City Bell,Argentina,-34.85,-58.05
Lincoln,Argentina,-34.85,-61.5167
Manuel B. Gonnet,Argentina,-34.85,-58.0167
Huinca Renanc,Argentina,-34.84,-64.3753
Jos Mara Ezeiza,Argentina,-34.8333,-58.5167
Florencio Varela,Argentina,-34.8167,-58.2833
Ciudad de la Costa,Uruguay,-34.8167,-55.95
Esteban Echeverra,Argentina,-34.8167,-58.4667
Burzaco,Argentina,-34.8167,-58.3667
Colonia Nicolich,Uruguay,-34.8167,-56.0167
Claypole,Argentina,-34.8,-58.3333
Adrogue,Argentina,-34.8,-58.3833
San Carlos,Uruguay,-34.8,-54.9167
El Pinar,Uruguay,-34.7972,-55.9097
Rafael Calzada,Argentina,-34.7833,-58.3667
Jos Mrmol,Argentina,-34.7833,-58.3667
Salinas,Uruguay,-34.7833,-55.8333
Gonzlez Catn,Argentina,-34.7667,-58.6167
Temperley,Argentina,-34.7667,-58.3833
Lomas de Zamora,Argentina,-34.7667,-58.4
San Francisco Solano,Argentina,-34.7667,-58.3167
Llavallol,Argentina,-34.7667,-58.3833
Marcos Paz,Argentina,-34.7667,-58.8333
Ciudad del Plata,Uruguay,-34.7667,-56.3806
La Paz,Uruguay,-34.7617,-56.2233
Goulburn,Australia,-34.7558,149.7206
Barros Blancos,Uruguay,-34.7542,-56.0042
Ezpeleta,Argentina,-34.7517,-58.2344
Banfield,Argentina,-34.75,-58.3833
Monte Chingolo,Argentina,-34.7333,-58.35
Chpica,Chile,-34.7333,-71.2833
Port Lincoln,Australia,-34.7322,135.8586
Quilmes,Argentina,-34.7167,-58.2667
Berazategui,Argentina,-34.7167,-58.25
Rafael Castillo,Argentina,-34.7167,-58.6167
Ciudad General Belgrano,Argentina,-34.7167,-58.5333
Remedios de Escalada,Argentina,-34.7167,-58.4
Villa Celina,Argentina,-34.7167,-58.4833
Las Piedras,Uruguay,-34.7167,-56.2167
Mariano Acosta,Argentina,-34.7167,-58.7833
Pando,Uruguay,-34.7167,-55.9583
Chimbarongo,Chile,-34.7089,-71.0431
Aldo Bonzi,Argentina,-34.7083,-58.5181
Tapiales,Argentina,-34.7058,-58.5047
Lans,Argentina,-34.7,-58.4
Isidro Casanova,Argentina,-34.7,-58.5833
Bernal,Argentina,-34.7,-58.2833
Wilde,Argentina,-34.7,-58.3167
Don Bosco,Argentina,-34.7,-58.2833
Villa Domnico,Argentina,-34.6917,-58.3333
San Justo,Argentina,-34.6833,-58.55
Libertad,Argentina,-34.6833,-58.6833
Gerli,Argentina,-34.6833,-58.3667
Sarand,Argentina,-34.6833,-58.3333
Kiama,Australia,-34.6708,150.8542
Ituzaing,Argentina,-34.6667,-58.6667
Castelar,Argentina,-34.6667,-58.6667
Villa Luzuriaga,Argentina,-34.6667,-58.5833
Lomas del Mirador,Argentina,-34.6667,-58.5297
Villa Alsina,Argentina,-34.6667,-58.4167
San Antonio de Padua,Argentina,-34.6667,-58.7
Nancagua,Chile,-34.6667,-71.2167
Merlo,Argentina,-34.6653,-58.7275
Progreso,Uruguay,-34.665,-56.2194
Avellaneda,Argentina,-34.6625,-58.3678
Ramos Meja,Argentina,-34.65,-58.5667
Morn,Argentina,-34.65,-58.6167
Mercedes,Argentina,-34.65,-59.4333
Haedo,Argentina,-34.65,-58.6
La Paloma,Uruguay,-34.65,-54.1667
Dock Sur,Argentina,-34.6417,-58.3478
La Reja,Argentina,-34.6394,-58.8283
Santa Cruz,Chile,-34.6372,-71.3631
Ciudadela,Argentina,-34.6333,-58.5333
Chacabuco,Argentina,-34.6333,-60.4667
Villa Sarmiento,Argentina,-34.6333,-58.5667
Libertad,Uruguay,-34.6333,-56.6192
Mount Barker,Australia,-34.63,117.6669
General Rodrguez,Argentina,-34.6167,-58.95
El Palomar,Argentina,-34.6167,-58.5833
Caseros,Argentina,-34.6106,-58.5625
Palmilla,Chile,-34.6042,-71.3583
Buenos Aires,Argentina,-34.6036,-58.3814
San Rafael,Argentina,-34.6,-68.3333
Hurlingham,Argentina,-34.6,-58.6333
Martn Coronado,Argentina,-34.6,-58.55
Gawler,Australia,-34.5981,138.745
Junn,Argentina,-34.5833,-60.95
San Fernando,Chile,-34.5833,-70.9833
Gansbaai,South Africa,-34.5828,19.3522
Lujn,Argentina,-34.5667,-59.1
General San Martn,Argentina,-34.5667,-58.5333
Billinghurst,Argentina,-34.5667,-58.5333
Leeton,Australia,-34.5667,146.4
Moss Vale,Australia,-34.55,150.3833
San Miguel,Argentina,-34.5333,-58.7167
Bella Vista,Argentina,-34.5333,-58.6667
Munro,Argentina,-34.5333,-58.5167
Muiz,Argentina,-34.5333,-58.7
Vicente Lpez,Argentina,-34.5333,-58.475
Bredasdorp,South Africa,-34.5333,20.0417
Jos C. Paz,Argentina,-34.5167,-58.7667
Florida,Argentina,-34.5167,-58.5
Villa Adelina,Argentina,-34.5167,-58.5333
Villa Ballester,Argentina,-34.5167,-58.5333
Canelones,Uruguay,-34.5167,-56.2833
Don Torcuato,Argentina,-34.5,-58.6167
Tigre,Argentina,-34.5,-58.6167
Los Polvorines,Argentina,-34.5,-58.7
Peralillo,Chile,-34.4875,-71.4917
Grand Bourg,Argentina,-34.4833,-58.7167
Martnez,Argentina,-34.4833,-58.5
Rocha,Uruguay,-34.4833,-54.35
La Lucila,Argentina,-34.4833,-58.4833
Bowral,Australia,-34.4792,150.4181
Tortuguitas,Argentina,-34.475,-58.7556
San Isidro,Argentina,-34.4739,-58.525
El Talar de Pacheco,Argentina,-34.4719,-58.655
Colonia del Sacramento,Uruguay,-34.4714,-57.8442
Beccar,Argentina,-34.4667,-58.5167
Ingeniero Pablo Nogus,Argentina,-34.4667,-58.7667
Acasusso,Argentina,-34.4667,-58.5167
Santa Luca,Uruguay,-34.4525,-56.3964
San Fernando,Argentina,-34.45,-58.5667
Pilar,Argentina,-34.45,-58.9167
General Pacheco,Argentina,-34.45,-58.65
Virreyes,Argentina,-34.45,-58.5333
Rinconada de Malloa,Chile,-34.4464,-70.9458
San Vicente de Tagua Tagua,Chile,-34.4394,-71.0761
San Andrs de Giles,Argentina,-34.4333,-59.4333
Wollongong,Australia,-34.4331,150.8831
Juan L. Lacaze,Uruguay,-34.4311,-57.4483
Garn,Argentina,-34.4167,-58.75
Rengo,Chile,-34.4167,-70.8667
Hermanus,South Africa,-34.4167,19.25
Peumo,Chile,-34.3961,-71.1694
Pichilemu,Chile,-34.3919,-72.0139
Carmen de Areco,Argentina,-34.3858,-59.8294
Minas,Uruguay,-34.3667,-55.2333
Matheu,Argentina,-34.3667,-58.8333
Ingeniero Maschwitz,Argentina,-34.3667,-58.75
Tumby Bay,Australia,-34.3667,136.1
Pichidegua,Chile,-34.3586,-71.2831
Quinta de Tilcoco,Chile,-34.3547,-70.9636
Beln de Escobar,Argentina,-34.3333,-58.8167
San Jos,Uruguay,-34.3333,-56.7167
Rosario,Uruguay,-34.3139,-57.3525
Coltauco,Chile,-34.3,-71.1
Young,Australia,-34.3,148.3
Las Cabras,Chile,-34.2917,-71.3097
Griffith,Australia,-34.29,146.04
General Arenales,Argentina,-34.2833,-61.2833
Nueva Helvecia,Uruguay,-34.2833,-57.2
Capilla del Seor,Argentina,-34.2833,-59.1
Berri,Australia,-34.2833,140.6
Requnoa,Chile,-34.2786,-70.8117
Rufino,Argentina,-34.2619,-62.7114
San Antonio de Areco,Argentina,-34.25,-59.4667
Manjimup,Australia,-34.2411,116.1464
Olivar,Chile,-34.233,-70.883
Caledon,South Africa,-34.23,19.4283
Olivar Bajo,Chile,-34.2289,-70.8799
Doihue,Chile,-34.2261,-70.965
Aigu,Uruguay,-34.2,-54.75
Castillos,Uruguay,-34.1989,-53.8575
Lo Miranda,Chile,-34.19,-70.89
Mildura,Australia,-34.1889,142.1583
Mossel Bay,South Africa,-34.1833,22.1333
Machal,Chile,-34.1825,-70.6514
Rancagua,Chile,-34.1667,-70.75
Campana,Argentina,-34.1667,-58.9167
Capitn Sarmiento,Argentina,-34.1667,-59.7833
Grabouw,South Africa,-34.15,19.0167
Laboulaye,Argentina,-34.1167,-63.4
Florida,Uruguay,-34.1,-56.2167
Riversdale,South Africa,-34.0969,21.2622
Zrate,Argentina,-34.0833,-59.0333
Arrecifes,Argentina,-34.0667,-60.1167
Campbelltown,Australia,-34.0667,150.8167
Graneros,Chile,-34.0647,-70.7264
Mitchells Plain,South Africa,-34.0506,18.6181
Plettenberg Bay,South Africa,-34.05,23.3667
Groot-Brakrivier,South Africa,-34.0425,22.2314
Khayelitsha,South Africa,-34.0403,18.6778
Knysna,South Africa,-34.0356,23.0489
Codegua,Chile,-34.0347,-70.6686
Humansdorp,South Africa,-34.0333,24.7667
Jeffreys Bay,South Africa,-34.0333,24.9167
Swellendam,South Africa,-34.0231,20.44
Carmelo,Uruguay,-34.0,-58.2833
Villa Cas,Argentina,-34.0,-61.6
Summerstrand,South Africa,-33.9914,25.6569
Villiersdorp,South Africa,-33.9908,19.2894
San Francisco de Mostazal,Chile,-33.9799,-70.7122
Gqeberha,South Africa,-33.9681,25.5981
George,South Africa,-33.9667,22.45
Gqeberha,South Africa,-33.9581,25.6
Kuilsrivier,South Africa,-33.9414,18.7066
Stellenbosch,South Africa,-33.9367,18.8614
Bonnievale,South Africa,-33.9275,20.1006
Cape Town,South Africa,-33.9253,18.4239
Wallaroo,Australia,-33.9167,137.6167
Parow,South Africa,-33.9,18.6
San Pedro,Chile,-33.8944,-71.4558
Bethelsdorp,South Africa,-33.8833,25.5
Pergamino,Argentina,-33.8833,-60.5667
Coln,Argentina,-33.8833,-61.1
Nueva Palmira,Uruguay,-33.8833,-58.4167
Flemington,Australia,-33.868,151.0709
Sydney,Australia,-33.8667,151.2
Justo Daract,Argentina,-33.8667,-65.1667
Esperance,Australia,-33.8611,121.8919
Ashton,South Africa,-33.8347,20.0547
Cowra,Australia,-33.8339,148.7
Clare,Australia,-33.8333,138.6
Hankey,South Africa,-33.8314,24.8808
Paine,Chile,-33.8167,-70.75
Despatch,South Africa,-33.8015,25.4768
Baradero,Argentina,-33.8,-59.5167
Robertson,South Africa,-33.8,19.8833
Montagu,South Africa,-33.7833,20.1167
Uitenhage,South Africa,-33.7667,25.4
Penrith,Australia,-33.7511,150.6942
Venado Tuerto,Argentina,-33.75,-61.9667
Isla de Maipo,Chile,-33.75,-70.9
Quakers Hill,Australia,-33.7361,150.8778
Buin,Chile,-33.7333,-70.7333
Ibicuy,Argentina,-33.7333,-59.1833
Paarl,South Africa,-33.7242,18.9558
Katoomba,Australia,-33.71,150.31
Villa Paranacito,Argentina,-33.7,-58.6833
Chuy,Uruguay,-33.6964,-53.46
Katanning,Australia,-33.6908,117.5553
El Monte,Chile,-33.6833,-71.0167
Cowell,Australia,-33.6833,136.9167
San Pedro,Argentina,-33.6792,-59.6669
Lascano,Uruguay,-33.6739,-54.2075
Villa Mercedes,Argentina,-33.6667,-65.4667
Talagante,Chile,-33.6667,-70.8667
Alexandria,South Africa,-33.6533,26.4083
Busselton,Australia,-33.6478,115.3458
Worcester,South Africa,-33.645,19.4436
San Jos de Maipo,Chile,-33.64,-70.3531
Rocas de Santo Domingo,Chile,-33.6358,-71.6281
Wellington,South Africa,-33.6333,18.9833
Pirque,Chile,-33.6333,-70.55
Calera de Tango,Chile,-33.6302,-70.7616
Melipilla,Chile,-33.6253,-71.2711
Puente Alto,Chile,-33.6167,-70.5667
Peaflor,Chile,-33.6167,-70.9167
Richmond,Australia,-33.6,150.75
San Antonio,Chile,-33.5933,-71.6217
Port Alfred,South Africa,-33.5917,26.8875
San Bernardo,Chile,-33.5833,-70.7
La Pintana,Chile,-33.5833,-70.6333
Oudtshoorn,South Africa,-33.5833,22.2
Ravensthorpe,Australia,-33.5817,120.0469
El Bosque,Chile,-33.5667,-70.675
Padre Hurtado,Chile,-33.5667,-70.8333
Tunuyn,Argentina,-33.5667,-69.0167
Dysselsdorp,South Africa,-33.5667,22.4333
Cartagena,Chile,-33.5425,-71.5958
La Florida,Chile,-33.5333,-70.5833
La Granja,Chile,-33.5333,-70.625
San Ramn,Chile,-33.5333,-70.6417
Trinidad,Uruguay,-33.5333,-56.8833
Dolores,Uruguay,-33.5333,-58.2167
Alcorta,Argentina,-33.5333,-61.1167
Santa Vitria do Palmar,Brazil,-33.5189,-53.3678
Maip,Chile,-33.5167,-70.7667
Espejo,Chile,-33.5167,-70.6917
Mara Pinto,Chile,-33.5167,-71.1167
Los Cerrillos,Chile,-33.5,-70.7167
Pealoln,Chile,-33.4833,-70.55
De Doorns,South Africa,-33.4833,19.6833
Lithgow,Australia,-33.4833,150.15
San Joaqun,Chile,-33.4792,-70.6413
La Paz,Argentina,-33.4667,-67.55
Jos Batlle y Ordez,Uruguay,-33.4667,-55.15
El Tabo,Chile,-33.4586,-71.6619
La Reina,Chile,-33.45,-70.55
Malmesbury,South Africa,-33.45,18.7333
Firmat,Argentina,-33.45,-61.4833
Santiago,Chile,-33.4372,-70.6506
La Carlota,Argentina,-33.4333,-63.3
Bathurst,Australia,-33.42,149.5778
Kelso,Australia,-33.4189,149.6058
Las Condes,Chile,-33.4117,-70.55
Kirkwood,South Africa,-33.4003,25.4425
Renca,Chile,-33.4,-70.7167
Curacav,Chile,-33.4,-71.15
El Quisco,Chile,-33.3913,-71.6929
Algarrobo,Chile,-33.3911,-71.6928
Conchal,Chile,-33.3833,-70.675
Forbes,Australia,-33.3833,148.0167
Quilicura,Chile,-33.3667,-70.7333
Durazno,Uruguay,-33.3667,-56.5167
Ceres,South Africa,-33.3667,19.3167
Lo Barnechea,Chile,-33.35,-70.5167
San Nicols de los Arroyos,Argentina,-33.3333,-60.2167
Bunbury,Australia,-33.3272,115.6369
Casablanca,Chile,-33.3167,-71.4167
Ramallo,Argentina,-33.3167,-60.2
Wagin,Australia,-33.3167,117.35
Central Coast,Australia,-33.3,151.2
San Luis,Argentina,-33.3,-66.3333
Grahamstown,South Africa,-33.2996,26.52
Tulbagh,South Africa,-33.285,19.1378
Orange,Australia,-33.2833,149.1
Lampa,Chile,-33.2833,-70.9
Chicureo Abajo,Chile,-33.2833,-70.6333
Corral de Bustos,Argentina,-33.2833,-62.2
Australind,Australia,-33.28,115.726
Mercedes,Uruguay,-33.25,-58.0333
Santa Rosa,Argentina,-33.25,-68.15
Villa Constitucin,Argentina,-33.2333,-60.3333
Treinta y Tres,Uruguay,-33.2333,-54.3833
Batuco,Chile,-33.2308,-70.8089
Colina,Chile,-33.2017,-70.6703
Port Pirie,Australia,-33.1858,138.0169
Rivadavia,Argentina,-33.1833,-68.4667
Arroyo Seco,Argentina,-33.1667,-60.5
Gualeguay,Argentina,-33.15,-59.3333
Kimba,Australia,-33.1396,136.4191
Ro Cuarto,Argentina,-33.1333,-64.35
Fray Bentos,Uruguay,-33.1333,-58.3
Parkes,Australia,-33.1333,148.1667
Placilla de Peuelas,Chile,-33.1156,-71.5678
Tiltil,Chile,-33.0817,-70.9278
San Martn,Argentina,-33.0806,-68.4706
Quilpu,Chile,-33.05,-71.45
Casilda,Argentina,-33.05,-61.1667
Valparaso,Chile,-33.0461,-71.6197
Villa Alemana,Chile,-33.0422,-71.3733
Whyalla,Australia,-33.0333,137.5667
Gobernador Glvez,Argentina,-33.0256,-60.6336
Via del Mar,Chile,-33.0244,-71.5517
East London,South Africa,-33.0175,27.9047
Gualeguaych,Argentina,-33.0167,-58.5167
Limache,Chile,-33.0167,-71.2667
Prez,Argentina,-33.0,-60.7667
Lujn de Cuyo,Argentina,-32.998,-68.873
Saldanha,South Africa,-32.9978,17.9456
Olmu,Chile,-32.9953,-71.1856
Maip,Argentina,-32.9667,-68.75
Peterborough,Australia,-32.9667,138.8333
Rosario,Argentina,-32.9575,-60.6394
Vergara,Uruguay,-32.95,-53.9333
Gonubie,South Africa,-32.943,28.008
Narrogin,Australia,-32.936,117.178
Newcastle,Australia,-32.9306,151.7542
Godoy Cruz,Argentina,-32.9167,-68.8333
Funes,Argentina,-32.9167,-60.8167
Concn,Chile,-32.9167,-71.5167
Ivanhoe,Australia,-32.9164,144.2994
Vredenburg,South Africa,-32.9064,17.9958
Roldn,Argentina,-32.9011,-60.9072
Piketberg,South Africa,-32.9,18.7667
Mendoza,Argentina,-32.8897,-68.8444
Calle Larga,Chile,-32.8831,-70.6486
Catemu,Chile,-32.8828,-70.6483
Quillota,Chile,-32.8667,-71.25
Las Heras,Argentina,-32.85,-68.8167
Granadero Baigorria,Argentina,-32.85,-60.7
Carcara,Argentina,-32.85,-61.15
Bhisho,South Africa,-32.8494,27.4381
Llaillay,Chile,-32.8403,-70.9483
Cessnock,Australia,-32.8342,151.3555
Los Andes,Chile,-32.8333,-70.6167
La Cruz,Chile,-32.8281,-71.1761
Caada de Gmez,Argentina,-32.8167,-61.4
Capitn Bermdez,Argentina,-32.8167,-60.7167
Kurri Kurri,Australia,-32.8167,151.4833
Paso de los Toros,Uruguay,-32.8112,-56.5086
General Cabrera,Argentina,-32.7994,-63.8683
San Esteban,Chile,-32.7992,-70.5803
Streaky Bay,Australia,-32.799,134.2048
Hijuelas,Chile,-32.7986,-71.1439
Alice,South Africa,-32.7892,26.835
La Calera,Chile,-32.7867,-71.1972
Quintero,Chile,-32.7833,-71.5333
Velddrif,South Africa,-32.7833,18.1667
Fray Luis A. Beltrn,Argentina,-32.7833,-60.7333
Armstrong,Argentina,-32.7833,-61.6
Fort Beaufort,South Africa,-32.7789,26.6353
Raymond Terrace,Australia,-32.7615,151.7441
Saint Helena Bay,South Africa,-32.7583,18.0278
General Deheza,Argentina,-32.7564,-63.7889
San Lorenzo,Argentina,-32.75,-60.7333
San Felipe,Chile,-32.75,-70.7239
Santa Mara,Chile,-32.7469,-70.6597
Nogales,Chile,-32.735,-71.2025
Somerset East,South Africa,-32.7167,25.5833
Puerto San Martn,Argentina,-32.7167,-60.7333
Maitland,Australia,-32.7167,151.55
Rutherford,Australia,-32.7153,151.525
Adelaide,South Africa,-32.7078,26.2956
Marcos Jurez,Argentina,-32.7,-62.1
Young,Uruguay,-32.7,-57.6333
Urdinarrain,Argentina,-32.6856,-58.8867
Las Parejas,Argentina,-32.6833,-61.5333
Leones,Argentina,-32.6589,-62.2967
Macul,Chile,-32.6583,-70.6
Bell Ville,Argentina,-32.6333,-62.6833
Putaendo,Chile,-32.6278,-70.7167
Victoria,Argentina,-32.6167,-60.1667
Mudgee,Australia,-32.6125,149.5872
Ro Branco,Uruguay,-32.5972,-53.3833
Stutterheim,South Africa,-32.5667,27.4167
Singleton,Australia,-32.5667,151.1697
Uspallata,Argentina,-32.5667,-69.3167
Jaguaro,Brazil,-32.5658,-53.3758
Mandurah,Australia,-32.5289,115.7231
Port Augusta,Australia,-32.4925,137.7658
Concepcin del Uruguay,Argentina,-32.4833,-58.2333
Las Rosas,Argentina,-32.4833,-61.5833
La Ligua,Chile,-32.45,-71.2167
Villa Nueva,Argentina,-32.4331,-63.2475
Cabildo,Chile,-32.4275,-71.0664
Hernando,Argentina,-32.4167,-63.7333
Villa Mara,Argentina,-32.4103,-63.2314
Nogoy,Argentina,-32.4,-59.8
Melo,Uruguay,-32.3667,-54.1833
Basavilbaso,Argentina,-32.3667,-58.8833
Beaufort West,South Africa,-32.35,22.5833
Paysand,Uruguay,-32.3214,-58.0756
Rosario del Tala,Argentina,-32.3,-59.1333
Nuevo Paysand,Uruguay,-32.2667,-58.0667
Muswellbrook,Australia,-32.2656,150.8886
Dubbo,Australia,-32.2569,148.6011
Graaff-Reinet,South Africa,-32.2522,24.5406
Petorca,Chile,-32.2514,-70.9314
Kwinana,Australia,-32.2394,115.7702
Arroio Grande,Brazil,-32.2378,-53.0869
Coln,Argentina,-32.2167,-58.1333
Villa San Jos,Argentina,-32.2,-58.2167
Norseman,Australia,-32.1961,121.7781
Villa Rumipal,Argentina,-32.1879,-64.4803
Ro Tercero,Argentina,-32.1833,-64.1
El Trbol,Argentina,-32.1833,-61.7167
Embalse,Argentina,-32.1833,-64.4167
Forster,Australia,-32.1806,152.5117
Villa Elisa,Argentina,-32.1667,-58.4
Cradock,South Africa,-32.165,25.6175
Ceduna,Australia,-32.1167,133.6667
Scone,Australia,-32.0833,150.85
Diamante,Argentina,-32.0667,-60.65
Santa Rosa de Calamuchita,Argentina,-32.0667,-64.5333
Rio Grande,Brazil,-32.035,-52.0989
Glvez,Argentina,-32.0333,-61.2167
Crespo,Argentina,-32.0333,-60.3167
Oliva,Argentina,-32.0333,-63.5667
So Jos do Norte,Brazil,-32.015,-52.0419
Cofimvaba,South Africa,-32.0025,27.5806
Coronda,Argentina,-31.9667,-60.9167
Villa General Belgrano,Argentina,-31.9667,-64.5667
Perth,Australia,-31.9558,115.8597
Broken Hill,Australia,-31.95,141.4667
Villa Dolores,Argentina,-31.9333,-65.2
Los Vilos,Chile,-31.9167,-71.5167
Oncativo,Argentina,-31.9167,-63.6667
Queenstown,South Africa,-31.9,26.8833
Taree,Australia,-31.9,152.45
San Jorge,Argentina,-31.8961,-61.8597
Viale,Argentina,-31.8667,-60.0167
Villaguay,Argentina,-31.85,-59.0167
Ncora,South Africa,-31.7938,27.7579
Pelotas,Brazil,-31.7719,-52.3428
Salamanca,Chile,-31.7667,-70.9667
Capo do Leo,Brazil,-31.7628,-52.4839
Tacuaremb,Uruguay,-31.7333,-55.9833
San Carlos Centro,Argentina,-31.7333,-61.1
Paran,Argentina,-31.7331,-60.5297
Pilar,Argentina,-31.6833,-63.9
Santo Tom,Argentina,-31.6667,-60.7667
Alta Gracia,Argentina,-31.6667,-64.4333
Vredendal,South Africa,-31.6644,18.5061
Northam,Australia,-31.6531,116.6661
Ro Segundo,Argentina,-31.6501,-63.9116
Caucete,Argentina,-31.65,-68.2833
Villa Aberastain,Argentina,-31.65,-68.5833
Santa Fe,Argentina,-31.6333,-60.7
Illapel,Chile,-31.6333,-71.1667
Port Saint Johns,South Africa,-31.6288,29.5369
San Salvador,Argentina,-31.6167,-58.5
Vanrhynsdorp,South Africa,-31.6167,18.7333
Mthatha,South Africa,-31.5886,28.79
Villa Krause,Argentina,-31.5833,-68.5333
Villa del Rosario,Argentina,-31.5833,-63.5333
Pinheiro Machado,Brazil,-31.5778,-53.3808
Candiota,Brazil,-31.5578,-53.6728
Wilcannia,Australia,-31.5569,143.3792
Yanchep,Australia,-31.55,115.634
San Juan,Argentina,-31.5342,-68.5261
Rivadavia,Argentina,-31.5303,-68.5947
Chimbas,Argentina,-31.5,-68.5319
Middelburg,South Africa,-31.4939,25.0172
Merredin,Australia,-31.482,118.279
Indwe,South Africa,-31.466,27.333
Piratini,Brazil,-31.4478,-53.1039
Esperanza,Argentina,-31.4427,-60.9257
San Martn,Argentina,-31.4397,-68.5206
San Francisco,Argentina,-31.4356,-62.0714
Port Macquarie,Australia,-31.4333,152.9
Frontera,Argentina,-31.4278,-62.0619
Crdoba,Argentina,-31.4167,-64.1833
Arroyito,Argentina,-31.4167,-63.05
Concordia,Argentina,-31.4,-58.0333
Villa Carlos Paz,Argentina,-31.4,-64.5167
Canela Baja,Chile,-31.3989,-71.4561
Molteno,South Africa,-31.3961,26.3631
Canguu,Brazil,-31.395,-52.6758
Salto,Uruguay,-31.3833,-57.95
Malvinas Argentinas,Argentina,-31.3697,-64.0531
So Loureno do Sul,Brazil,-31.365,-51.9778
Chepes,Argentina,-31.35,-66.6
La Calera,Argentina,-31.3439,-64.3353
Monte Cristo,Argentina,-31.3431,-63.9444
Gingin,Australia,-31.34,115.91
Bag,Brazil,-31.3308,-54.1069
Laguna Paiva,Argentina,-31.3039,-60.6589
Rafaela,Argentina,-31.2667,-61.4833
Santa Mara,Argentina,-31.2611,-64.4639
Cosqun,Argentina,-31.2436,-64.4653
Unquillo,Argentina,-31.2333,-64.3167
Southern Cross,Australia,-31.2306,119.3278
Combarbal,Chile,-31.1833,-71.0
Tranqueras,Uruguay,-31.1833,-55.7667
Santa Rosa de Ro Primero,Argentina,-31.15,-63.3833
Woomera,Australia,-31.1496,136.8
Mostardas,Brazil,-31.1069,-50.9208
La Falda,Argentina,-31.0833,-64.5
Kempsey,Australia,-31.0833,152.8333
Tamworth,Australia,-31.0833,150.9167
Jess Mara,Argentina,-30.9833,-64.1
Federacin,Argentina,-30.9833,-57.9167
Dom Pedrito,Brazil,-30.9828,-54.6728
Barkly East,South Africa,-30.9681,27.5933
Gunnedah,Australia,-30.9667,150.25
Carnarvon,South Africa,-30.9667,22.1333
Santa Elena,Argentina,-30.95,-59.8
Federal,Argentina,-30.95,-58.8
Sunchales,Argentina,-30.9333,-61.5667
Kingoonya,Australia,-30.917,135.3147
Rivera,Uruguay,-30.9025,-55.5506
Punitaqui,Chile,-30.9,-71.2667
Santana do Livramento,Brazil,-30.8908,-55.5328
Brinkmann,Argentina,-30.8669,-62.0336
Camaqu,Brazil,-30.8528,-51.8153
Margate,South Africa,-30.85,30.3667
Capilla del Monte,Argentina,-30.85,-64.5167
Monte Patria,Chile,-30.8333,-70.7
San Justo,Argentina,-30.7833,-60.5833
Chajar,Argentina,-30.7667,-57.9833
La Paz,Argentina,-30.75,-59.65
Port Shepstone,South Africa,-30.75,30.45
Kalgoorlie,Australia,-30.7489,121.4658
Cruz del Eje,Argentina,-30.7333,-64.8
Colesberg,South Africa,-30.7167,25.1
Baltasar Brum,Uruguay,-30.7167,-57.3333
Dom Feliciano,Brazil,-30.7039,-52.1078
Morteros,Argentina,-30.7,-62.0
Aliwal North,South Africa,-30.7,26.7
Mount Fletcher,South Africa,-30.692,28.503
Tapes,Brazil,-30.6728,-51.3958
De Aar,South Africa,-30.65,24.0167
Ovalle,Chile,-30.6,-71.2
Crro Grande,Brazil,-30.6,-51.75
San Javier,Argentina,-30.5833,-59.95
Harding,South Africa,-30.5833,29.8833
Kokstad,South Africa,-30.5539,29.4269
Encruzilhada do Sul,Brazil,-30.5439,-52.5219
Caapava do Sul,Brazil,-30.5119,-53.4908
Armidale,Australia,-30.5,151.65
Artigas,Uruguay,-30.4667,-56.4667
Bethulie,South Africa,-30.4667,25.9667
Andamooka,Australia,-30.4485,137.1651
Den Funes,Argentina,-30.4333,-64.35
Quthing,Lesotho,-30.4001,27.7002
Quara,Brazil,-30.3878,-56.4508
San Jos de Feliciano,Argentina,-30.3833,-58.75
Chamical,Argentina,-30.3667,-66.3167
Matatiele,South Africa,-30.3422,28.8061
So Gabriel,Brazil,-30.3358,-54.32
eMuziwezinto,South Africa,-30.3167,30.6667
San Cristbal,Argentina,-30.3167,-61.2333
Narrabri,Australia,-30.3167,149.7667
Coffs Harbour,Australia,-30.3022,153.1189
Zastron,South Africa,-30.3,27.0833
Barra do Ribeiro,Brazil,-30.2908,-51.3008
Scottburgh,South Africa,-30.2833,30.75
Rosrio do Sul,Brazil,-30.2578,-54.9139
Palmares do Sul,Brazil,-30.2578,-50.51
Monte Caseros,Argentina,-30.25,-57.65
Bella Unin,Uruguay,-30.25,-57.5833
San Jos de Jchal,Argentina,-30.2333,-68.75
Andacollo,Chile,-30.2303,-71.0858
Rodeo,Argentina,-30.2164,-69.1394
Pntano Grande,Brazil,-30.1908,-52.3739
Cidreira,Brazil,-30.1811,-50.2056
So Sep,Brazil,-30.1608,-53.565
eXobho,South Africa,-30.1572,30.0647
Mohales Hoek,Lesotho,-30.15,27.4667
Buti,Brazil,-30.12,-51.9619
Qachas Nek,Lesotho,-30.1167,28.6833
Guaba,Brazil,-30.1139,-51.325
Seforong,Lesotho,-30.1028,28.1864
Maghalleen,Lesotho,-30.0942,27.4189
Kingsborough,South Africa,-30.0833,30.8667
Bourke,Australia,-30.0817,145.9511
Viamo,Brazil,-30.0808,-51.0228
Arroio dos Ratos,Brazil,-30.0769,-51.7289
Sauce,Argentina,-30.0667,-58.7667
eManzimtoti,South Africa,-30.05,30.8833
Cachoeira do Sul,Brazil,-30.0394,-52.8953
Vicua,Chile,-30.0333,-70.7167
Porto Alegre,Brazil,-30.0328,-51.23
Rio Pardo,Brazil,-29.99,-52.3778
Tramanda,Brazil,-29.9847,-50.1336
Siloe,Lesotho,-29.9836,27.2792
So Jernimo,Brazil,-29.9589,-51.7219
Charqueadas,Brazil,-29.955,-51.625
Coquimbo,Chile,-29.9531,-71.3433
Cachoeirinha,Brazil,-29.9508,-51.0939
Gravata,Brazil,-29.9433,-50.9939
Triunfo,Brazil,-29.9428,-51.7178
Canoas,Brazil,-29.92,-51.18
La Serena,Chile,-29.9,-71.25
Rasebetsane,Lesotho,-29.8992,27.6628
Osrio,Brazil,-29.8869,-50.27
Cacequi,Brazil,-29.8839,-54.825
Durban,South Africa,-29.8833,31.05
Queensburgh,South Africa,-29.8667,30.9333
Ceres,Argentina,-29.8667,-61.95
Esteio,Brazil,-29.8608,-51.1789
Westville,South Africa,-29.831,30.925
Santo Antnio,Brazil,-29.8178,-50.52
Pinetown,South Africa,-29.8167,30.85
Mafeteng,Lesotho,-29.8167,27.25
Restinga Sca,Brazil,-29.8128,-53.375
Taquari,Brazil,-29.8,-51.8597
New Germany,South Africa,-29.8,30.8833
Gillitts,South Africa,-29.7972,30.7944
Alegrete,Brazil,-29.7839,-55.7911
Curuz Cuati,Argentina,-29.7833,-58.0833
Kloof,South Africa,-29.7833,30.8333
Hillcrest,South Africa,-29.78,30.7628
Inverell,Australia,-29.7667,151.1167
Ramabitsa,Lesotho,-29.7625,27.6139
Capo da Canoa,Brazil,-29.7608,-50.03
So Leopoldo,Brazil,-29.76,-51.1469
Uruguaiana,Brazil,-29.755,-57.0878
Edenburg,South Africa,-29.7347,25.9369
uMhlanga Rocks,South Africa,-29.7333,31.0708
Wepener,South Africa,-29.7333,27.0333
Santa Cruz do Sul,Brazil,-29.7178,-52.4258
Paso de los Libres,Argentina,-29.7167,-57.0833
Porto,Brazil,-29.7019,-51.2419
Capela de Santana,Brazil,-29.7,-51.325
Mohlanapeng,Lesotho,-29.6975,28.6947
Montenegro,Brazil,-29.6889,-51.4608
Santa Maria,Brazil,-29.6839,-53.8069
Grafton,Australia,-29.6833,152.9333
Campo Bom,Brazil,-29.6789,-51.0528
Novo Hamburgo,Brazil,-29.6778,-51.1308
Candelria,Brazil,-29.6689,-52.7889
Prieska,South Africa,-29.6683,22.7439
Springbok,South Africa,-29.6667,17.8833
Rolante,Brazil,-29.6508,-50.5758
Taquara,Brazil,-29.6506,-50.7806
Estncia Velha,Brazil,-29.6483,-51.1739
Nako,Lesotho,-29.6481,27.7336
Agudo,Brazil,-29.645,-53.24
Sapiranga,Brazil,-29.6378,-51.0069
Parob,Brazil,-29.6286,-50.8347
Hopetown,South Africa,-29.6258,24.0856
So Pedro do Sul,Brazil,-29.6208,-54.1789
Pietermaritzburg,South Africa,-29.6167,30.3833
Ararica,Brazil,-29.6139,-50.925
Bom Retiro do Sul,Brazil,-29.6089,-51.9428
Venncio Aires,Brazil,-29.6058,-52.1919
Ivoti,Brazil,-29.5908,-51.1608
So Sebastio do Ca,Brazil,-29.5869,-51.3758
Terra de Areia,Brazil,-29.585,-50.0708
Dois Irmos,Brazil,-29.58,-51.085
Igrejinha,Brazil,-29.5739,-50.79
Mpophomeni,South Africa,-29.567,30.182
So Francisco de Assis,Brazil,-29.55,-55.1308
Sinimbu,Brazil,-29.5389,-52.5219
Ballitoville,South Africa,-29.5333,31.2167
Thaba-Tseka,Lesotho,-29.5333,28.6
Three Springs,Australia,-29.5333,115.7617
Trs Coroas,Brazil,-29.5169,-50.7778
Villa Ojo de Agua,Argentina,-29.5167,-63.7
Cruzeiro do Sul,Brazil,-29.5128,-51.985
Nyakosoba,Lesotho,-29.5047,27.8692
Estrla,Brazil,-29.5019,-51.9658
Romang,Argentina,-29.5,-59.7667
Jaguari,Brazil,-29.4969,-54.69
Bom Princpio,Brazil,-29.4889,-51.3528
Lajeado,Brazil,-29.4669,-51.9614
Howick,South Africa,-29.4667,30.2333
Vera,Argentina,-29.4667,-60.2167
Moree,Australia,-29.4658,149.8339
Mazenod,Lesotho,-29.4642,27.4969
Trs Cachoeiras,Brazil,-29.4558,-49.9239
Feliz,Brazil,-29.4508,-51.3058
Teutnia,Brazil,-29.4478,-51.8058
So Francisco de Paula,Brazil,-29.4478,-50.5839
Yamba,Australia,-29.4333,153.35
La Rioja,Argentina,-29.4125,-66.8542
Koffiefontein,South Africa,-29.4081,25.0022
Arroio do Meio,Brazil,-29.4008,-51.945
Groutville,South Africa,-29.388,31.245
Ratau,Lesotho,-29.3828,27.7892
Gramado,Brazil,-29.3789,-50.8739
Nova Petrpolis,Brazil,-29.3758,-51.1119
Qiloane,Lesotho,-29.3625,27.6319
Canela,Brazil,-29.3562,-50.8136
Trres,Brazil,-29.335,-49.7269
KwaDukuza,South Africa,-29.3333,31.2917
Arroio do Tigre,Brazil,-29.3328,-53.0928
Maseru,Lesotho,-29.31,27.48
Villa Unin,Argentina,-29.3,-68.2
Carlos Barbosa,Brazil,-29.2978,-51.5039
Mokhotlong,Lesotho,-29.2885,29.0656
Roca Sales,Brazil,-29.2839,-51.8678
Port Denison,Australia,-29.275,114.9194
Recreo,Argentina,-29.2667,-65.0667
Garibaldi,Brazil,-29.2558,-51.5339
Senekane,Lesotho,-29.2525,27.7433
Encantado,Brazil,-29.2358,-51.87
Reconquista,Argentina,-29.2333,-59.9333
Tostado,Argentina,-29.2333,-61.7667
Jlio de Castilhos,Brazil,-29.2269,-53.6819
Farroupilha,Brazil,-29.225,-51.3478
Passo do Serto,Brazil,-29.2228,-49.81
Morawa,Australia,-29.2111,116.0089
Thaba Nchu,South Africa,-29.2,26.8333
Mercedes,Argentina,-29.2,-58.0833
Mooirivier,South Africa,-29.2,29.9833
Santiago,Brazil,-29.1917,-54.8672
Bento Gonalves,Brazil,-29.1708,-51.5189
Caxias do Sul,Brazil,-29.1678,-51.1789
Chilecito,Argentina,-29.1667,-67.5
Teyateyaneng,Lesotho,-29.1511,27.7425
Goya,Argentina,-29.1333,-59.25
Santa Rosa,Brazil,-29.1333,-49.7167
Pofadder,South Africa,-29.1286,19.3947
Itaqui,Brazil,-29.1253,-56.5531
Avellaneda,Argentina,-29.1175,-59.6583
Bloemfontein,South Africa,-29.1167,26.2167
Mapoteng,Lesotho,-29.1097,27.9739
Sombrio,Brazil,-29.1039,-49.6289
Barros Cassal,Brazil,-29.0928,-52.5828
Sitebe,South Africa,-29.089,31.432
Tupanciret,Brazil,-29.0808,-53.8358
Greytown,South Africa,-29.0667,30.5833
Kingston,Norfolk Island,-29.0606,167.9619
Douglas,South Africa,-29.05,23.7667
Ritchie,South Africa,-29.05,24.6
Flores da Cunha,Brazil,-29.0289,-51.1819
Kueneng,Lesotho,-29.0161,27.9981
Pitseng,Lesotho,-29.0097,28.2575
Estcourt,South Africa,-29.0,29.8833
Jacinto Machado,Brazil,-28.9969,-49.7639
Santa Luca,Argentina,-28.9833,-59.1
Fontoura Xavier,Brazil,-28.9828,-52.3458
So Marcos,Brazil,-28.9708,-51.0678
Peka,Lesotho,-28.9667,27.7667
Veranpolis,Brazil,-28.9358,-51.5489
Ararangu,Brazil,-28.935,-49.4858
Turvo,Brazil,-28.9258,-49.6789
Maputsoe,Lesotho,-28.895,27.907
Eshowe,South Africa,-28.8883,31.4483
Leonora,Australia,-28.8845,121.3308
Leribe,Lesotho,-28.8734,28.0416
rvorezinha,Brazil,-28.8719,-52.175
Casino,Australia,-28.8667,153.05
Chumbicha,Argentina,-28.8667,-66.2333
Ballina,Australia,-28.8636,153.5328
Antnio Prado,Brazil,-28.8578,-51.2828
Balnerio do Rinco,Brazil,-28.8344,-49.2361
Soledade,Brazil,-28.8178,-52.51
Goonellabah,Australia,-28.8167,153.3167
Lismore,Australia,-28.8167,153.2833
Kakamas,South Africa,-28.8,20.65
Nova Prata,Brazil,-28.7839,-51.61
Butha-Buthe,Lesotho,-28.7833,28.2333
Geraldton,Australia,-28.7744,114.6089
Richards Bay,South Africa,-28.7694,32.0594
Empangeni,South Africa,-28.75,31.9
Forquilhinha,Brazil,-28.7469,-49.4719
Kimberley,South Africa,-28.7383,24.7639
Espumoso,Brazil,-28.725,-52.85
Nova Bassano,Brazil,-28.7239,-51.705
Iara,Brazil,-28.7133,-49.3
Serafina Cora,Brazil,-28.7119,-51.935
Brandfort,South Africa,-28.7014,26.4589
Keimoes,South Africa,-28.7,20.9667
Cricima,Brazil,-28.6775,-49.3697
Bom Jesus,Brazil,-28.6678,-50.4169
So Borja,Brazil,-28.6606,-56.0044
Morro da Fumaa,Brazil,-28.6508,-49.21
Byron Bay,Australia,-28.6431,153.615
Cruz Alta,Brazil,-28.6386,-53.6064
Sango,Brazil,-28.6378,-49.1289
Nova Veneza,Brazil,-28.6369,-49.4978
Fras,Argentina,-28.6333,-65.1333
Ibirub,Brazil,-28.6278,-53.09
Laverton,Australia,-28.6278,122.4031
Fouriesburg,South Africa,-28.6227,28.2109
Jaguaruna,Brazil,-28.615,-49.0258
Alexander Bay,South Africa,-28.6083,16.5033
Siderpolis,Brazil,-28.5978,-49.4244
Vallenar,Chile,-28.5708,-70.7581
San Roque,Argentina,-28.5667,-58.7167
Casca,Brazil,-28.5608,-51.9778
Ladysmith,South Africa,-28.5597,29.7806
Santo Tom,Argentina,-28.55,-56.05
Boshof,South Africa,-28.55,25.2333
Oranjemund,Namibia,-28.55,16.4333
Goondiwindi,Australia,-28.5461,150.3097
Barkly West,South Africa,-28.5381,24.5186
Phuthaditjhaba,South Africa,-28.5333,28.8167
Vacaria,Brazil,-28.5119,-50.9339
Villa Ocampo,Argentina,-28.4833,-59.35
Laguna,Brazil,-28.4828,-48.7808
Tubaro,Brazil,-28.4669,-49.0069
Catamarca,Argentina,-28.4667,-65.7833
Bella Vista,Argentina,-28.4667,-59.05
Aatuya,Argentina,-28.4667,-62.8333
Huasco,Chile,-28.4664,-71.2192
Ekuvukeni,South Africa,-28.466,30.157
No-Me-Toque,Brazil,-28.4589,-52.8208
Upington,South Africa,-28.45,21.25
Marau,Brazil,-28.4489,-52.2
Mtubatuba,South Africa,-28.4167,32.1833
Delportshoop,South Africa,-28.4167,24.3
So Lus Gonzaga,Brazil,-28.4078,-54.9608
Lauro Mller,Brazil,-28.3928,-49.3969
Iju,Brazil,-28.3878,-53.915
Pescaria Brava,Brazil,-28.3833,-48.8833
Entre Ijus,Brazil,-28.36,-54.2678
Orlees,Brazil,-28.3589,-49.2908
Imaru,Brazil,-28.3408,-48.82
Gravatal,Brazil,-28.3308,-49.035
Postmasburg,South Africa,-28.3279,23.0706
So Ludgero,Brazil,-28.3258,-49.1767
Ulundi,South Africa,-28.3167,31.4167
Ciudad de Loreto,Argentina,-28.3,-64.2
Santo ngelo,Brazil,-28.2989,-54.2628
So Joaquim,Brazil,-28.2939,-49.9319
Panambi,Brazil,-28.2928,-53.5019
Bultfontein,South Africa,-28.2869,26.1506
Carzinho,Brazil,-28.2839,-52.7864
Harrismith,South Africa,-28.2833,29.1333
Brao do Norte,Brazil,-28.275,-49.1658
Passo Fundo,Brazil,-28.2628,-52.4069
Armazm,Brazil,-28.2619,-49.0178
Saladas,Argentina,-28.25,-58.6167
Catupe,Brazil,-28.25,-54.0119
Imbituba,Brazil,-28.24,-48.67
Nqutu,South Africa,-28.232,30.566
Bethlehem,South Africa,-28.224,28.311
Banora Point,Australia,-28.2167,153.5333
Warwick,Australia,-28.2152,152.0352
Lagoa Vermelha,Brazil,-28.2089,-51.5258
Danilskuil,South Africa,-28.2,23.5833
Glencoe,South Africa,-28.1833,30.15
La Cruz,Argentina,-28.1833,-56.65
Tweed Heads,Australia,-28.1833,153.55
Dundee,South Africa,-28.1725,30.2314
Currumbin,Australia,-28.1575,153.4686
Crro Largo,Brazil,-28.1489,-54.7378
San Lorenzo,Argentina,-28.1381,-58.7681
Hertzogville,South Africa,-28.1333,25.5
Warrenton,South Africa,-28.1114,24.8497
Virginia,South Africa,-28.1064,26.8622
Ventersburg,South Africa,-28.0833,27.1333
Tapejara,Brazil,-28.0678,-52.0139
Tinogasta,Argentina,-28.0667,-67.5667
Mount Magnet,Australia,-28.06,117.8461
Gobernador Virasora,Argentina,-28.05,-56.0333
Mburucuy,Argentina,-28.05,-58.2333
Giru,Brazil,-28.0278,-54.35
Garopaba,Brazil,-28.0228,-48.6128
Karasburg,Namibia,-28.0172,18.7478
Gold Coast,Australia,-28.0167,153.4
Urubici,Brazil,-28.015,-49.5919
Thargomindah,Australia,-27.9922,143.8197
Nerang,Australia,-27.9902,153.3358
Welkom,South Africa,-27.9831,26.7208
Southport,Australia,-27.9678,153.4136
Mondlo,South Africa,-27.967,30.722
Hennenman,South Africa,-27.9667,27.0333
Steynsrus,South Africa,-27.95,27.5667
Sananduva,Brazil,-27.9497,-51.8067
Sarandi,Brazil,-27.9439,-52.9228
Olifantshoek,South Africa,-27.9333,22.7333
Empedrado,Argentina,-27.9333,-58.7833
Jan Kempdorp,South Africa,-27.9194,24.8361
Riebeeckstad,South Africa,-27.9188,26.8188
Apstoles,Argentina,-27.9167,-55.7667
Prto Xavier,Brazil,-27.9058,-55.1378
Palmeira das Misses,Brazil,-27.8994,-53.3136
Getlio Vargas,Brazil,-27.89,-52.2278
Coomera,Australia,-27.8722,153.3147
Santa Rosa,Brazil,-27.8708,-54.4814
Odendaalsrus,South Africa,-27.8667,26.6833
Warden,South Africa,-27.8539,28.9667
Santo Augusto,Brazil,-27.8508,-53.7769
Wesselsbron,South Africa,-27.85,26.3667
Hoopstad,South Africa,-27.8333,25.9167
Lajes,Brazil,-27.8158,-50.3258
Reitz,South Africa,-27.8,28.4333
Ormeau,Australia,-27.7966,153.26
Santiago del Estero,Argentina,-27.7833,-64.2667
Santa Sylvina,Argentina,-27.7833,-61.15
Pampierstad,South Africa,-27.776,24.69
Trs de Maio,Brazil,-27.7728,-54.24
Vryheid,South Africa,-27.7669,30.8
Ronda Alta,Brazil,-27.7669,-52.8019
Hartswater,South Africa,-27.7667,24.8167
Allanridge,South Africa,-27.7544,26.6367
Newcastle,South Africa,-27.7464,29.9328
Constantina,Brazil,-27.735,-52.9919
La Banda,Argentina,-27.7333,-64.25
Kalbarri,Australia,-27.71,114.16
Kathu,South Africa,-27.7,23.05
Alfredo Wagner,Brazil,-27.7,-49.3339
Santo Amaro da Imperatriz,Brazil,-27.6878,-48.7789
Coronel Du Graty,Argentina,-27.6667,-60.9333
Redentora,Brazil,-27.6639,-53.6378
So Jos do Cerrito,Brazil,-27.6628,-50.58
Kroonstad,South Africa,-27.65,27.2333
Petrus Steyn,South Africa,-27.65,28.1333
Beln,Argentina,-27.65,-67.0333
Bloemhof,South Africa,-27.65,25.59
Palhoa,Brazil,-27.6444,-48.6678
Erechim,Brazil,-27.6339,-52.2739
Quimil,Argentina,-27.6333,-62.4167
Horizontina,Brazil,-27.6258,-54.3078
So Jos,Brazil,-27.615,-48.6278
Ipswich,Australia,-27.6144,152.7608
Leandro N. Alem,Argentina,-27.6,-55.3333
Ituzaing,Argentina,-27.6,-56.6667
Andalgal,Argentina,-27.6,-66.3167
Rochedale,Australia,-27.5991,153.1297
Florianpolis,Brazil,-27.5933,-48.553
Correia Pinto,Brazil,-27.585,-50.3608
Villa ngela,Argentina,-27.5833,-60.7167
Toowoomba,Australia,-27.5667,151.95
Ubombo,South Africa,-27.5667,32.0833
Taung,South Africa,-27.5625,24.7481
Antnio Carlos,Brazil,-27.5169,-48.7678
San Luis del Palmar,Argentina,-27.5167,-58.5667
Crissiumal,Brazil,-27.5,-54.1008
Biguau,Brazil,-27.4942,-48.6556
Corinda,Australia,-27.4858,153.1011
Corrientes,Argentina,-27.4833,-58.8167
Ober,Argentina,-27.4833,-55.1333
Barranqueras,Argentina,-27.4833,-58.9333
Termas de Ro Hondo,Argentina,-27.4833,-64.8667
Garup,Argentina,-27.4833,-55.8333
Otaclio Costa,Brazil,-27.4828,-50.1219
Tierra Amarilla,Chile,-27.4822,-70.2658
Seberi,Brazil,-27.4778,-53.4028
Brisbane,Australia,-27.4678,153.0281
Highfields,Australia,-27.4633,151.9458
Candelaria,Argentina,-27.4594,-55.7453
Trs Passos,Brazil,-27.4558,-53.9319
Resistencia,Argentina,-27.4514,-58.9867
Kuruman,South Africa,-27.45,23.4333
Aguilares,Argentina,-27.4333,-65.6167
Vrede,South Africa,-27.43,29.16
Fontana,Argentina,-27.4167,-59.0333
Ituporanga,Brazil,-27.4139,-49.6008
Campos Novos,Brazil,-27.4019,-51.225
Ayolas,Paraguay,-27.3842,-56.8395
Bothaville,South Africa,-27.3833,26.6167
Tenente Portela,Brazil,-27.3708,-53.7578
Posadas,Argentina,-27.3667,-55.9
Volksrust,South Africa,-27.3667,29.8833
Puerto Tirol,Argentina,-27.3667,-59.0667
Copiap,Chile,-27.3664,-70.3331
Nonoai,Brazil,-27.3619,-52.7708
Frederico Westphalen,Brazil,-27.3589,-53.3939
Encarnacin,Paraguay,-27.3472,-55.8739
Capinzal,Brazil,-27.3439,-51.6119
Concepcin,Argentina,-27.3333,-65.5833
Planalto,Brazil,-27.3289,-53.0589
General Pinedo,Argentina,-27.3167,-61.2833
Makwassie,South Africa,-27.3167,25.9833
Lavumisa,Eswatini,-27.2962,31.9
Nova Trento,Brazil,-27.2867,-48.9303
Heilbron,South Africa,-27.2836,27.9708
Frankfort,South Africa,-27.2833,28.5167
Curitibanos,Brazil,-27.2828,-50.5839
So Joo Batista,Brazil,-27.2758,-48.8489
Villa Berthet,Argentina,-27.2667,-60.4167
San Bernardo,Argentina,-27.2667,-60.7
Canelinha,Brazil,-27.265,-48.7678
Pouso Redondo,Brazil,-27.2578,-49.9339
Tijucas,Brazil,-27.2408,-48.6339
Concrdia,Brazil,-27.2339,-52.0278
Koppies,South Africa,-27.2333,27.5833
Charata,Argentina,-27.2167,-61.2
Rio do Sul,Brazil,-27.2139,-49.6428
Narangba,Australia,-27.2022,152.9591
Erval dOeste,Brazil,-27.1939,-51.495
Schweizer-Reineke,South Africa,-27.1833,25.3333
Dalby,Australia,-27.1813,151.2661
Joaaba,Brazil,-27.1778,-51.505
Coronel Bogado,Paraguay,-27.17,-56.25
Itapiranga,Brazil,-27.1689,-53.7119
Monteros,Argentina,-27.1667,-65.5
Lontras,Brazil,-27.1658,-49.5419
Porto Belo,Brazil,-27.1578,-48.5528
Seara,Brazil,-27.1489,-52.3108
Bombinhas,Brazil,-27.1378,-48.5169
Aristbulo del Valle,Argentina,-27.1167,-54.9167
Tai,Brazil,-27.1158,-49.9978
Nhlangano,Eswatini,-27.1122,31.1983
Monda,Brazil,-27.1028,-53.4019
Brusque,Brazil,-27.0978,-48.9178
Chapec,Brazil,-27.0958,-52.6178
Itapema,Brazil,-27.0903,-48.6114
Guabiruba,Brazil,-27.0858,-48.9808
Caboolture,Australia,-27.085,152.9513
Bongaree,Australia,-27.0813,153.1636
Hohenau,Paraguay,-27.0796,-55.75
So Carlos,Brazil,-27.0778,-53.0039
Catanduvas,Brazil,-27.0708,-51.6619
Palmitos,Brazil,-27.0678,-53.1608
Las Breas,Argentina,-27.0667,-61.0667
Caldera,Chile,-27.0667,-70.8333
Ibirama,Brazil,-27.0569,-49.5178
Presidente Getlio,Brazil,-27.0508,-49.6228
Jardn Amrica,Argentina,-27.05,-55.2333
Famaill,Argentina,-27.05,-65.4
La Leonesa,Argentina,-27.05,-58.7167
Apina,Brazil,-27.0358,-49.39
Villiers,South Africa,-27.0333,28.6
Bella Vista,Argentina,-27.0333,-65.3
Fraiburgo,Brazil,-27.0258,-50.9208
Cambori,Brazil,-27.025,-48.6539
Irani,Brazil,-27.025,-51.9019
Vredefort,South Africa,-27.0167,27.3833
Videira,Brazil,-27.0078,-51.1519
Amersfoort,South Africa,-27.0078,29.8711
Treze Tlias,Brazil,-27.0019,-51.4058
Hlatikulu,Eswatini,-27.0,31.4167
Balnerio de Cambori,Brazil,-26.9908,-48.635
Presidencia de la Plaza,Argentina,-26.9833,-59.8333
Orkney,South Africa,-26.9789,26.6692
Xaxim,Brazil,-26.9619,-52.535
Santa Ceclia,Brazil,-26.9608,-50.4269
Vryburg,South Africa,-26.9586,24.7322
Standerton,South Africa,-26.95,29.25
San Isidro de Lules,Argentina,-26.9333,-65.35
Corzuela,Argentina,-26.9333,-60.9667
Gaspar,Brazil,-26.9308,-48.9589
Vaal Reefs,South Africa,-26.929,26.736
Lebon Rgis,Brazil,-26.9289,-50.695
Saudade,Brazil,-26.9239,-53.0028
Rodeio,Brazil,-26.9228,-49.3658
Blumenau,Brazil,-26.9189,-49.0658
Machagai,Argentina,-26.9167,-60.0333
Coronel Freitas,Brazil,-26.9089,-52.7028
Itaja,Brazil,-26.9078,-48.6619
Parys,South Africa,-26.9,27.45
Ilhota,Brazil,-26.9,-48.8269
Navegantes,Brazil,-26.8989,-48.6539
Indaial,Brazil,-26.8978,-49.2319
Deneysville,South Africa,-26.895,28.0983
Cunha Por,Brazil,-26.8939,-53.1678
San Ignacio,Paraguay,-26.8876,-57.023
Santa Rosa,Paraguay,-26.8873,-56.849
Xanxer,Brazil,-26.8769,-52.4039
Ponte Serrada,Brazil,-26.8719,-52.0158
Pilar,Paraguay,-26.8695,-58.3
Klerksdorp,South Africa,-26.8667,26.6667
Quitilipi,Argentina,-26.8667,-60.2167
Villa Nougues,Argentina,-26.8578,-65.3756
Faxinal dos Guedes,Brazil,-26.8528,-52.26
Banda del Ro Sal,Argentina,-26.85,-65.1667
Pinhalzinho,Brazil,-26.8478,-52.9919
Stilfontein,South Africa,-26.8428,26.7744
Descanso,Brazil,-26.8247,-53.5018
Timb,Brazil,-26.8233,-49.2717
San Miguel de Tucumn,Argentina,-26.8167,-65.2167
Yerba Buena,Argentina,-26.8167,-65.3167
Sasolburg,South Africa,-26.8142,27.8286
Caloundra,Australia,-26.8047,153.1338
Puerto Rico,Argentina,-26.8,-55.0167
Campo Largo,Argentina,-26.8,-60.8333
Presidencia Roque Senz Pea,Argentina,-26.7833,-60.45
Benedito Novo,Brazil,-26.7828,-49.3639
Caador,Brazil,-26.7753,-51.015
Maravilha,Brazil,-26.77,-53.2167
Penha,Brazil,-26.7689,-48.6458
Piarras,Brazil,-26.75,-48.6667
Pomerode,Brazil,-26.7408,-49.1769
Rio dos Cedros,Brazil,-26.7378,-49.2739
Taf Viejo,Argentina,-26.7333,-65.2667
Quilombo,Brazil,-26.7258,-52.7208
So Miguel dOeste,Brazil,-26.725,-53.5178
Lus Alves,Brazil,-26.7208,-48.9328
Potchefstroom,South Africa,-26.715,27.1033
Vanderbijlpark,South Africa,-26.6992,27.8356
Buderim,Australia,-26.6847,153.0532
Santa Mara,Argentina,-26.6833,-66.0333
Delareyville,South Africa,-26.6833,25.4667
San Juan Bautista,Paraguay,-26.68,-57.15
Vereeniging,South Africa,-26.6736,27.9319
Maroochydore,Australia,-26.6553,153.0932
Lderitz,Namibia,-26.6478,15.1578
Barra Velha,Brazil,-26.6319,-48.685
Nambour,Australia,-26.6269,152.9591
Quilpie,Australia,-26.6161,144.2675
Massaranduba,Brazil,-26.6108,-49.0078
Guaraciaba,Brazil,-26.5989,-53.5178
Meekatharra,Australia,-26.5936,118.4953
Ganyesa,South Africa,-26.5908,24.1594
Keetmanshoop,Namibia,-26.5833,18.1333
Roma,Australia,-26.5733,148.7869
Abelardo Luz,Brazil,-26.565,-52.3278
Meyerton,South Africa,-26.5583,28.0197
So Domingos,Brazil,-26.5578,-52.5319
Kingaroy,Australia,-26.541,151.84
General Jos de San Martn,Argentina,-26.5375,-59.3417
Ermelo,South Africa,-26.5333,29.9833
Sannieshof,South Africa,-26.5333,25.8
Coolum Beach,Australia,-26.5295,153.091
Pampa del Infierno,Argentina,-26.5167,-61.1667
Secunda,South Africa,-26.5161,29.2028
Bethanie,Namibia,-26.5006,17.16
Manzini,Eswatini,-26.495,31.388
Jaragu do Sul,Brazil,-26.4858,-49.0669
Palmas,Brazil,-26.4842,-51.9906
Fochville,South Africa,-26.4833,27.4833
Tres de Mayo,Paraguay,-26.4813,-56.0959
Guaramirim,Brazil,-26.4728,-49.0028
Evander,South Africa,-26.4719,29.11
Barra do Sul,Brazil,-26.4682,-48.6104
Lobamba,Eswatini,-26.4667,31.2
So Jos do Cedro,Brazil,-26.455,-53.4939
Siteki,Eswatini,-26.455,31.952
Bethal,South Africa,-26.45,29.45
General Carneiro,Brazil,-26.4278,-51.3158
Corup,Brazil,-26.425,-49.2428
Nigel,South Africa,-26.4203,28.4683
Kinross,South Africa,-26.4167,29.0833
Schroeder,Brazil,-26.4128,-49.0728
Charleville,Australia,-26.4016,146.2383
Eldorado,Argentina,-26.4,-54.6333
Clevelndia,Brazil,-26.3958,-52.4708
Campo Er,Brazil,-26.3939,-53.0778
Diego de Almagro,Chile,-26.3911,-70.0458
Araquari,Brazil,-26.37,-48.7219
Papanduva,Brazil,-26.37,-50.1439
So Loureno dOeste,Brazil,-26.3589,-52.8508
Carletonville,South Africa,-26.3581,27.3981
Tres Isletas,Argentina,-26.35,-60.4167
Chaaral,Chile,-26.3444,-70.6219
Itaipolis,Brazil,-26.3358,-49.9058
Katlehong,South Africa,-26.3333,28.15
Westonaria,South Africa,-26.3178,27.6506
Mbabane,Eswatini,-26.3167,31.1333
Joinvile,Brazil,-26.3039,-48.8458
Breyten,South Africa,-26.3,29.9833
Kraaipan,South Africa,-26.294,25.297
Setlagode,South Africa,-26.287,25.117
Vitorino,Brazil,-26.2769,-52.7839
Soweto,South Africa,-26.2678,27.8585
Alberton,South Africa,-26.2672,28.1219
Kriel,South Africa,-26.255,29.263
Dionsio Cerqueira,Brazil,-26.255,-53.64
Springs,South Africa,-26.2547,28.4428
Rio Negrinho,Brazil,-26.2539,-49.5178
Barraco,Brazil,-26.2539,-53.6328
So Bento do Sul,Brazil,-26.25,-49.3789
Bernardo de Irigoyen,Argentina,-26.25,-53.9833
Turffontein,South Africa,-26.2446,28.0397
So Francisco do Sul,Brazil,-26.2433,-48.6381
Prto Unio,Brazil,-26.2378,-51.0778
Brakpan,South Africa,-26.2353,28.37
Doornkop,South Africa,-26.2328,27.7833
Unio da Vitria,Brazil,-26.23,-51.0858
Pato Branco,Brazil,-26.2289,-52.6708
Mbuyapey,Paraguay,-26.221,-56.7565
Germiston,South Africa,-26.2178,28.1672
Trancas,Argentina,-26.2172,-65.2831
Boksburg,South Africa,-26.2125,28.2625
Johannesburg,South Africa,-26.2044,28.0456
Caazap,Paraguay,-26.2,-56.38
Campo Alegre,Brazil,-26.1928,-49.2658
Gympie,Australia,-26.19,152.6655
Benoni,South Africa,-26.1883,28.3206
Alberdi,Paraguay,-26.1873,-58.1426
Formosa,Argentina,-26.1833,-58.1833
Primrose,South Africa,-26.1833,28.1667
Randfontein,South Africa,-26.1797,27.7042
Bedfordview,South Africa,-26.1794,28.1361
Canoinhas,Brazil,-26.1769,-50.39
Roodepoort,South Africa,-26.1625,27.8725
Bituruna,Brazil,-26.1608,-51.5528
Lichtenburg,South Africa,-26.15,26.1667
Marmeleiro,Brazil,-26.1489,-53.0258
Edenvale,South Africa,-26.1411,28.1528
Morokweng,South Africa,-26.127,23.775
San Juan Nepomuceno,Paraguay,-26.1117,-55.9353
Mafra,Brazil,-26.1114,-49.8053
Sandton,South Africa,-26.107,28.0517
Rio Negro,Brazil,-26.1058,-49.7978
Trs Barras,Brazil,-26.1058,-50.3219
Kempton Park,South Africa,-26.1,28.2333
Krugersdorp,South Africa,-26.1,27.7667
Pin,Brazil,-26.0978,-49.4289
Randburg,South Africa,-26.0936,28.0064
Cafayate,Argentina,-26.0833,-65.9667
Itsoseng,South Africa,-26.083,25.882
Francisco Beltro,Brazil,-26.0808,-53.055
Santo Antnio do Sudoeste,Brazil,-26.07,-53.7228
Aba,Paraguay,-26.0296,-55.94
Garuva,Brazil,-26.0269,-48.855
Tshabong,Botswana,-26.02,22.4056
acunday,Paraguay,-26.02,-54.7699
Cruz Machado,Brazil,-26.0169,-51.3469
Catembe,Mozambique,-26.0092,32.5667
Midrand,South Africa,-25.9992,28.1264
Agudos do Sul,Brazil,-25.9928,-49.335
Coronel Vivida,Brazil,-25.98,-52.5678
Quiindy,Paraguay,-25.9725,-57.2382
Matola,Mozambique,-25.9667,32.4667
Namaacha,Mozambique,-25.9667,32.0333
Wanda,Argentina,-25.9667,-54.5833
Piggs Peak,Eswatini,-25.961,31.247
Borja,Paraguay,-25.9514,-56.4961
Castelli,Argentina,-25.95,-60.6167
Mangueirinha,Brazil,-25.9408,-52.1758
Mbuzini,South Africa,-25.9333,31.9333
Tijucas do Sul,Brazil,-25.9278,-49.1989
Maputo,Mozambique,-25.9153,32.5764
Ampre,Brazil,-25.915,-53.4728
Acahay,Paraguay,-25.9141,-57.1133
Birdsville,Australia,-25.8986,139.3513
Guaratuba,Brazil,-25.8828,-48.575
Mallet,Brazil,-25.8778,-50.8208
Witbank,South Africa,-25.877,29.201
So Mateus do Sul,Brazil,-25.8739,-50.3828
Quitandinha,Brazil,-25.8719,-49.4978
Mahikeng,South Africa,-25.8656,25.6436
Centurion,South Africa,-25.8603,28.1894
Chopinzinho,Brazil,-25.8558,-52.5228
Mmabatho,South Africa,-25.85,25.6333
So Joo,Brazil,-25.8278,-52.725
Matinhos,Brazil,-25.8178,-48.5428
Monte Quemado,Argentina,-25.8036,-62.8303
Rosario de la Frontera,Argentina,-25.8,-64.9667
Garsfontein,South Africa,-25.7913,28.2935
Barberton,South Africa,-25.7861,31.0531
Mandirituba,Brazil,-25.7789,-49.3258
Lapa,Brazil,-25.77,-49.7158
Middelburg,South Africa,-25.7681,29.4547
Realeza,Brazil,-25.7669,-53.5269
Carapegu,Paraguay,-25.7634,-57.2468
Villarrica,Paraguay,-25.75,-56.4333
Dois Vizinhos,Brazil,-25.75,-53.0569
Pretoria,South Africa,-25.7461,28.1881
Hartbeespoort,South Africa,-25.7442,27.8994
Piran,Argentina,-25.7328,-59.11
Rio Azul,Brazil,-25.7328,-50.7958
Jeppes Reef,South Africa,-25.72,31.477
So Jorge dOeste,Brazil,-25.7058,-52.9178
Pinho,Brazil,-25.6958,-51.66
Langeloop,South Africa,-25.684,31.635
So Joo do Triunfo,Brazil,-25.6828,-50.2969
Contenda,Brazil,-25.6758,-49.535
Pretoria-Noord,South Africa,-25.6731,28.1733
Cullinan,South Africa,-25.6728,28.5208
Capanema,Brazil,-25.6719,-53.8089
Rustenburg,South Africa,-25.6667,27.2428
Machadodorp,South Africa,-25.6667,30.25
Candi,Brazil,-25.6628,-52.1258
Brits,South Africa,-25.6344,27.7811
Rebouas,Brazil,-25.6208,-50.6928
Paraguar,Paraguay,-25.62,-57.16
Capitn Mauricio Jos Troche,Paraguay,-25.6189,-56.2769
Makan,South Africa,-25.605,27.91
Puerto Iguaz,Argentina,-25.6,-54.5667
Araucria,Brazil,-25.5928,-49.41
Balsa Nova,Brazil,-25.5839,-49.6358
Phokeng,South Africa,-25.5833,27.1333
Pontal do Paran,Brazil,-25.5768,-48.3581
Incio Martins,Brazil,-25.5708,-51.0789
Betanty,Madagascar,-25.5666,45.5272
Presidente Franco,Paraguay,-25.5638,-54.611
Yaguarn,Paraguay,-25.5622,-57.2866
Foz do Iguau,Brazil,-25.54,-54.5875
Maryborough,Australia,-25.5375,152.7019
Repatriacin,Paraguay,-25.5352,-55.9924
So Jos dos Pinhais,Brazil,-25.535,-49.2058
Zeerust,South Africa,-25.5333,26.0833
Marovato,Madagascar,-25.529,45.2769
Paranagu,Brazil,-25.5208,-48.5094
Ciudad del Este,Paraguay,-25.5167,-54.6161
Villeta,Paraguay,-25.5123,-57.5647
It,Paraguay,-25.5096,-57.36
Guarambar,Paraguay,-25.491,-57.4557
Piray,Paraguay,-25.4842,-57.2361
Morretes,Brazil,-25.4769,-48.8339
Nelspruit,South Africa,-25.4745,30.9703
Irati,Brazil,-25.4669,-50.6508
Itacurub de la Cordillera,Paraguay,-25.4616,-56.8533
Campo Largo,Brazil,-25.4589,-49.5278
Ypan,Paraguay,-25.4561,-57.5069
Coronel Oviedo,Paraguay,-25.45,-56.44
Dinokana,South Africa,-25.447,25.863
Piraquara,Brazil,-25.4419,-49.0628
Komatipoort,South Africa,-25.4333,31.95
Kwamhlanga,South Africa,-25.432,28.708
Curitiba,Brazil,-25.4297,-49.2719
Palmeira,Brazil,-25.4289,-50.0058
Antonina,Brazil,-25.4289,-48.7119
Windorah,Australia,-25.4205,142.6544
Winterveld,South Africa,-25.42,27.949
San Antonio,Paraguay,-25.4138,-57.5659
Ypacara,Paraguay,-25.41,-57.28
Laranjeiras do Sul,Brazil,-25.4078,-52.4158
Manhia,Mozambique,-25.4,32.8
Hammanskraal,South Africa,-25.4,28.2833
Antaritarika,Madagascar,-25.3968,45.7581
Guarapuava,Brazil,-25.395,-51.4578
emby,Paraguay,-25.394,-57.5398
Itaugu,Paraguay,-25.3926,-57.3542
Caacup,Paraguay,-25.387,-57.14
Cantagalo,Brazil,-25.3739,-52.1258
Villa Elisa,Paraguay,-25.3734,-57.5841
Eidsvold,Australia,-25.3719,151.123
Doctor Juan Eulogio Estigarribia,Paraguay,-25.3718,-55.7046
Campo Magro,Brazil,-25.3689,-49.4508
Teixeira Soares,Brazil,-25.3678,-50.4608
Quatro Barras,Brazil,-25.3658,-49.0769
Mogogelo,South Africa,-25.354,28.138
Capiat,Paraguay,-25.3538,-57.4426
So Miguel do Iguau,Brazil,-25.3478,-54.2378
San Lorenzo,Paraguay,-25.34,-57.52
Comandante Fontana,Argentina,-25.3333,-59.6833
Fernando de la Mora,Paraguay,-25.3281,-57.5509
Almirante Tamandar,Brazil,-25.325,-49.31
Ambazoa,Madagascar,-25.3147,45.896
Aregu,Paraguay,-25.3125,-57.3847
Kwaggafontein,South Africa,-25.3075,28.9469
Nova Laranjeiras,Brazil,-25.3069,-52.5408
Campina Grande do Sul,Brazil,-25.3056,-49.0553
Tranovaho,Madagascar,-25.3054,44.9762
San Bernardino,Paraguay,-25.3044,-57.2938
Boekenhouthoek,South Africa,-25.303,29.015
Medianeira,Brazil,-25.295,-54.0939
Asuncin,Paraguay,-25.2945,-57.6435
Colombo,Brazil,-25.2919,-49.2239
Hervey Bay,Australia,-25.29,152.84
Elandsdoorn,South Africa,-25.288,29.196
Erada,Madagascar,-25.2858,45.9479
Clorinda,Argentina,-25.2833,-57.7167
Taltal,Chile,-25.2833,-69.7667
Atyr,Paraguay,-25.2794,-57.1729
Mathibestad,South Africa,-25.276,28.178
Mogwase,South Africa,-25.276,27.216
Luque,Paraguay,-25.2672,-57.4853
Altos,Paraguay,-25.2621,-57.2494
Tobat,Paraguay,-25.2611,-57.0833
Ambondro,Madagascar,-25.25,45.8333
Matelndia,Brazil,-25.2408,-53.9958
Makapanstad,South Africa,-25.239,28.116
Caraguatay,Paraguay,-25.2384,-56.8269
Imbituva,Brazil,-25.23,-50.6044
Itaperuu,Brazil,-25.2212,-49.3458
Lobatse,Botswana,-25.2167,25.6667
Prudentpolis,Brazil,-25.2128,-50.9778
Kopoky,Madagascar,-25.2122,45.2095
Mariano Roque Alonso,Paraguay,-25.2079,-57.532
Yulara,Australia,-25.2069,130.971
Bocaiva do Sul,Brazil,-25.2058,-49.115
Catanduvas,Brazil,-25.2028,-53.1569
Maroaloka,Madagascar,-25.1984,46.1902
Mabeskraal,South Africa,-25.196,26.803
Rio Branco do Sul,Brazil,-25.19,-49.3139
Sihanamaro,Madagascar,-25.1789,45.7733
Ambovombe,Madagascar,-25.1754,46.0882
Limpio,Paraguay,-25.1673,-57.4695
Sampona,Madagascar,-25.1494,46.3086
Cu Azul,Brazil,-25.1469,-53.8489
Androka,Madagascar,-25.1302,44.4545
Emboscada,Paraguay,-25.1241,-57.3481
Siyabuswa,South Africa,-25.1167,29.05
Marolinta,Madagascar,-25.1109,44.6286
Sarasambo,Madagascar,-25.1081,46.7884
Guaraniau,Brazil,-25.1008,-52.8778
Sabie,South Africa,-25.0978,30.7792
Lydenburg,South Africa,-25.096,30.446
Ponta Grossa,Brazil,-25.095,-50.1619
Villa Hayes,Paraguay,-25.09,-57.53
Joaqun V. Gonzlez,Argentina,-25.0833,-64.1833
Adamstown,Pitcairn Islands,-25.0667,-130.0833
Yh,Paraguay,-25.0578,-55.9227
Ranopiso,Madagascar,-25.0548,46.6846
Xai-Xai,Mozambique,-25.05,33.65
Arroyos y Esteros,Paraguay,-25.05,-57.09
Turvo,Brazil,-25.0428,-51.53
Amboasary,Madagascar,-25.0364,46.3843
Manambaro,Madagascar,-25.0349,46.8087
Macia,Mozambique,-25.0333,33.1
Tlanaro,Madagascar,-25.0325,46.9833
Ankaramena,Madagascar,-25.0284,46.7572
Ipiranga,Brazil,-25.0239,-50.5839
Androka,Madagascar,-25.0219,44.0749
Santa Teresa,Brazil,-25.0167,-53.5667
Canania,Brazil,-25.015,-47.9269
Iva,Brazil,-25.0108,-50.8589
Soanierana,Madagascar,-25.0049,46.8906
Benjamn Aceval,Paraguay,-24.9974,-57.5524
Kanye,Botswana,-24.9833,25.35
Rosario de Lerma,Argentina,-24.9833,-65.5833
Behara,Madagascar,-24.956,46.3897
Cascavel,Brazil,-24.9558,-53.4553
Theodore,Australia,-24.9472,150.0755
Santa Maria,Brazil,-24.9333,-51.85
Ifarantsa,Madagascar,-24.9329,46.863
Jafaro,Madagascar,-24.9253,45.5191
Carambe,Brazil,-24.9178,-50.0969
Cerrillos,Argentina,-24.9,-65.4833
Palmital,Brazil,-24.8928,-52.2028
Carnarvon,Australia,-24.8672,113.6611
Ramotswa,Botswana,-24.8667,25.8167
Bundaberg,Australia,-24.8661,152.3494
Santa Helena,Brazil,-24.86,-54.3328
Maltahhe,Namibia,-24.85,16.9833
Crro Azul,Brazil,-24.8239,-49.2608
Antanimora Atsinanana,Madagascar,-24.8152,45.6613
Corblia,Brazil,-24.7989,-53.3069
Isaka-Ivondro,Madagascar,-24.7986,46.8647
Mahatalaky,Madagascar,-24.7908,47.0787
Castro,Brazil,-24.7893,-50.0123
Salta,Argentina,-24.7833,-65.4167
Mosopa,Botswana,-24.7792,25.4183
Pitanga,Brazil,-24.7569,-51.7608
Cajati,Brazil,-24.7361,-48.1228
Regedor Quissico,Mozambique,-24.7257,34.766
Casteel,South Africa,-24.7247,31.0201
Thamaga,Botswana,-24.7167,25.5333
Pariquera-Au,Brazil,-24.715,-47.8811
Toledo,Brazil,-24.7139,-53.7428
Manjacaze,Mozambique,-24.7117,33.8828
Iguape,Brazil,-24.7081,-47.5553
Las Lomitas,Argentina,-24.7072,-60.5944
Veinticinco de Diciembre,Paraguay,-24.7,-56.55
Jacupiranga,Brazil,-24.6925,-48.0022
Tranoroa,Madagascar,-24.6897,45.0419
Ampanihy,Madagascar,-24.6888,44.7483
Chibuto,Mozambique,-24.6867,33.5306
Ankiliabo,Madagascar,-24.6843,44.7233
Regedor Zavala,Mozambique,-24.6833,34.6667
Itampolo,Madagascar,-24.6829,43.9512
Amborompotsy,Madagascar,-24.6791,44.9507
Andalatanosy,Madagascar,-24.6713,45.5976
Tlokweng,Botswana,-24.6686,25.9711
General Martn Miguel de Gemes,Argentina,-24.6667,-65.05
Gabane,Botswana,-24.6667,25.7822
San Estanislao,Paraguay,-24.6657,-56.4467
Gaborone,Botswana,-24.6569,25.9086
Reserva,Brazil,-24.65,-50.8508
Mogoditshane,Botswana,-24.6333,25.8667
Mariental,Namibia,-24.6333,17.9667
Buffelshoek,South Africa,-24.6308,31.1383
Cafelndia,Brazil,-24.6178,-53.32
Roncador,Brazil,-24.6028,-52.275
Jwaneng,Botswana,-24.6017,24.7281
Thabazimbi,South Africa,-24.6,27.4
Tranomaro,Madagascar,-24.5999,46.4746
Okkerneutboom,South Africa,-24.595,31.139
Acornhoek,South Africa,-24.593,31.097
Campina da Lagoa,Brazil,-24.5919,-52.7989
Ranomafana,Madagascar,-24.573,46.9643
Cndido de Abreu,Brazil,-24.5669,-51.3333
Mmopone,Botswana,-24.5669,25.8733
Marechal Cndido Rondon,Brazil,-24.5561,-54.0567
Metsemotlhaba,Botswana,-24.5531,25.8039
Bekitro,Madagascar,-24.5503,45.2991
Pira do Sul,Brazil,-24.5258,-49.9489
Chokw,Mozambique,-24.5253,33.0086
Eldorado,Brazil,-24.52,-48.1081
Manuel Ribas,Brazil,-24.5158,-51.6678
Zvora,Mozambique,-24.515,35.1997
Apia,Brazil,-24.5097,-48.8428
Tibagi,Brazil,-24.5089,-50.4139
Registro,Brazil,-24.4878,-47.8439
Bevoay,Madagascar,-24.4833,47.0167
Ebelo,Madagascar,-24.4825,46.0284
Ankilimivory,Madagascar,-24.4724,44.9772
Villa Curuguaty,Paraguay,-24.4692,-55.6947
Kopong,Botswana,-24.4686,25.8922
Monte Rico,Argentina,-24.4514,-65.1667
Imba,Brazil,-24.445,-50.7608
Imanombo,Madagascar,-24.4363,45.8257
Iretama,Brazil,-24.4239,-52.1058
Villa del Rosario,Paraguay,-24.4196,-57.1
Mochudi,Botswana,-24.4167,26.15
Molepolole,Botswana,-24.4066,25.4951
Biloela,Australia,-24.4002,150.5133
Manevy,Madagascar,-24.3901,46.8045
Sete Barras,Brazil,-24.3878,-47.9258
Perico,Argentina,-24.3833,-65.1167
Antaly,Madagascar,-24.3833,44.4
Ampasimena,Madagascar,-24.3687,47.163
Bedourie,Australia,-24.3594,139.4691
Maromby,Madagascar,-24.3531,46.5765
Ejeda,Madagascar,-24.3415,44.5178
Esira,Madagascar,-24.3311,46.7066
Telmaco Borba,Brazil,-24.3239,-50.6158
Juqui,Brazil,-24.3208,-47.6347
Perube,Brazil,-24.32,-46.9983
Mambor,Brazil,-24.3189,-52.53
Zebediela,South Africa,-24.31,29.27
Lebowakgomo,South Africa,-24.305,29.565
Mahabo,Madagascar,-24.2898,45.223
Itariri,Brazil,-24.2888,-47.1332
Palotina,Brazil,-24.2839,-53.84
Manantenina,Madagascar,-24.2815,47.3178
Miracatu,Brazil,-24.2808,-47.46
Marotsiraka,Madagascar,-24.2796,45.985
Pedro de Toledo,Brazil,-24.275,-47.2328
Gogogogo,Madagascar,-24.2659,44.8069
Analapatsy,Madagascar,-24.2547,47.2061
Jaguariava,Brazil,-24.2508,-49.7058
Palpal,Argentina,-24.25,-65.1167
Katuet,Paraguay,-24.2483,-54.7596
Ivaipor,Brazil,-24.2478,-51.685
Ventania,Brazil,-24.2458,-50.2428
Analamary,Madagascar,-24.2455,47.2196
Ribeiro Branco,Brazil,-24.2208,-48.7658
San Pedro,Argentina,-24.2196,-64.87
San Antonio de los Cobres,Argentina,-24.2178,-66.32
Bekily,Madagascar,-24.2162,45.3166
Ortigueira,Brazil,-24.2078,-50.9489
Goio-Er,Brazil,-24.185,-53.0278
Guapiara,Brazil,-24.185,-48.5328
Beraketa,Madagascar,-24.1835,45.6861
San Salvador de Jujuy,Argentina,-24.1833,-65.3
Itanham,Brazil,-24.1831,-46.7889
Jardim Alegre,Brazil,-24.1789,-51.6919
Mahaly,Madagascar,-24.1733,46.3495
Beahitse,Madagascar,-24.1673,44.4421
Terra Roxa dOeste,Brazil,-24.1667,-54.0833
Arapoti,Brazil,-24.1578,-49.8269
Francisco Caballero lvarez,Paraguay,-24.1533,-54.6672
Vohitany,Madagascar,-24.1441,44.7602
Sengs,Brazil,-24.1128,-49.4639
Itarar,Brazil,-24.1125,-49.3317
Lokwabe,Botswana,-24.0961,21.7781
San Pedro de Ycuamandiy,Paraguay,-24.09,-57.08
Mongagu,Brazil,-24.0869,-46.6289
Guara,Brazil,-24.08,-54.2558
Villa Ygatim,Paraguay,-24.0796,-55.5
Tsivory,Madagascar,-24.0727,46.0793
Panda,Mozambique,-24.0629,34.7303
Salto del Guair,Paraguay,-24.0625,-54.3069
Moreira Sales,Brazil,-24.0619,-53.0069
Fotadrevo,Madagascar,-24.0571,45.0191
Campo Mouro,Brazil,-24.0458,-52.3828
Sandravinany,Madagascar,-24.0406,47.4416
Curiva,Brazil,-24.0328,-50.4578
Barbosa Ferraz,Brazil,-24.03,-52.0119
Alto Piquiri,Brazil,-24.0278,-53.4408
Ambahita,Madagascar,-24.0095,45.2604
Praia Grande,Brazil,-24.0058,-46.4028
Capo Bonito,Brazil,-24.0058,-48.3494
Beroy Atsimo,Madagascar,-24.0044,44.6642
Ipor,Brazil,-24.0028,-53.7039
Mariluz,Brazil,-24.0019,-53.1458
Faxinal,Brazil,-24.0008,-51.32
Guaruj,Brazil,-23.9936,-46.2564
Itapeva,Brazil,-23.9819,-48.8758
So Joo da Ocalina,Brazil,-23.98,-51.8178
Lenyenye,South Africa,-23.972,30.269
So Vicente,Brazil,-23.9664,-46.3861
Santos,Brazil,-23.9608,-46.3339
Namakgale,South Africa,-23.938,31.028
Phalaborwa,South Africa,-23.9333,31.1167
Juquitiba,Brazil,-23.9319,-47.0686
Araruna,Brazil,-23.9319,-52.4958
Lehututu,Botswana,-23.9169,21.8264
Peabiru,Brazil,-23.9128,-52.3428
Beheloka,Madagascar,-23.9122,43.6689
Ypejh,Paraguay,-23.91,-55.46
Masiaboay,Madagascar,-23.9002,44.4638
Polokwane,South Africa,-23.9,29.45
Ingeniero Guillermo N. Jurez,Argentina,-23.9,-61.85
Lazarivo,Madagascar,-23.8987,44.9567
Cubato,Brazil,-23.8953,-46.4256
Paranhos,Brazil,-23.8928,-55.4308
Mankoeng,South Africa,-23.886,29.718
Nkowakowa,South Africa,-23.886,30.293
Lima,Paraguay,-23.885,-56.4789
Soamanonga,Madagascar,-23.8786,44.7906
So Miguel Arcanjo,Brazil,-23.8778,-47.9969
Venceslau Brs,Brazil,-23.8739,-49.8028
Altnia,Brazil,-23.8739,-53.9019
Inhambane,Mozambique,-23.865,35.3833
So Pedro do Iva,Brazil,-23.865,-51.8558
Itaber,Brazil,-23.8619,-49.1372
Maxixe,Mozambique,-23.8597,35.3472
Bertioga,Brazil,-23.8539,-46.1389
So Loureno da Serra,Brazil,-23.8528,-46.9428
Ibaiti,Brazil,-23.8489,-50.1878
Gladstone,Australia,-23.8427,151.2555
Ambatomivary,Madagascar,-23.8414,45.5703
Isoanala,Madagascar,-23.8353,45.7145
Tzaneen,South Africa,-23.8333,30.1667
Embu-Guau,Brazil,-23.8322,-46.8114
Pilar do Sul,Brazil,-23.8128,-47.7158
So Sebastio,Brazil,-23.804,-45.4051
Beantake,Madagascar,-23.8003,44.3078
Libertador General San Martn,Argentina,-23.8,-64.7833
Manambondro,Madagascar,-23.7998,47.545
Buri,Brazil,-23.7975,-48.5928
Engenheiro Beltro,Brazil,-23.7969,-52.2689
Eldorado,Brazil,-23.7869,-54.2839
Cruzeiro do Oeste,Brazil,-23.785,-53.0728
Ilhabela,Brazil,-23.7778,-45.3578
Terra Boa,Brazil,-23.7678,-52.4439
Umuarama,Brazil,-23.7658,-53.325
Koloti,South Africa,-23.746,29.307
Marilndia do Sul,Brazil,-23.745,-51.3078
Rio Grande da Serra,Brazil,-23.7439,-46.3978
Tapejara,Brazil,-23.7328,-52.8728
So Jernimo da Serra,Brazil,-23.7278,-50.7408
Tamarana,Brazil,-23.7228,-51.0969
Isahara,Madagascar,-23.72,47.3554
Itapecerica da Serra,Brazil,-23.7172,-46.8494
Piedade,Brazil,-23.7119,-47.4278
Ribeiro Pires,Brazil,-23.7108,-46.4128
Itaporanga,Brazil,-23.7078,-49.4897
Alice Springs,Australia,-23.7,133.87
Vatananto,Madagascar,-23.7,47.2167
So Bernardo do Campo,Brazil,-23.6939,-46.565
Siqueira Campos,Brazil,-23.6889,-49.8339
Diadema,Brazil,-23.6858,-46.6228
Onverwacht,South Africa,-23.685,27.696
Iguatemi,Brazil,-23.68,-54.5608
Mau,Brazil,-23.6678,-46.4608
Cianorte,Brazil,-23.6628,-52.605
Ibina,Brazil,-23.6564,-47.2225
Santo Andr,Brazil,-23.6533,-46.528
Antofagasta,Chile,-23.65,-70.4
Califrnia,Brazil,-23.65,-51.355
Ga-Kgapane,South Africa,-23.649,30.226
Salto de Pirapora,Brazil,-23.6489,-47.5728
Sarapu,Brazil,-23.6408,-47.825
Tacuru,Brazil,-23.6328,-55.0158
So Caetano do Sul,Brazil,-23.6228,-46.5508
Ianapera,Madagascar,-23.6208,45.1427
Caraguatatuba,Brazil,-23.62,-45.4128
Cotia,Brazil,-23.6039,-46.9189
Vargem Grande Paulista,Brazil,-23.6028,-47.0258
Jandaia do Sul,Brazil,-23.6028,-51.6428
Taboo da Serra,Brazil,-23.6019,-46.7528
Los Blancos,Argentina,-23.6,-62.6
Floresta,Brazil,-23.5989,-52.0808
Itapetininga,Brazil,-23.5917,-48.0531
Cambira,Brazil,-23.5828,-51.5778
Biritiba-Mirim,Brazil,-23.5728,-46.0389
Ambatolava,Madagascar,-23.5667,47.3
Belamoty,Madagascar,-23.5585,44.8091
Barcaldine,Australia,-23.5555,145.2888
Ianantsony,Madagascar,-23.5523,43.7603
Vohipaho,Madagascar,-23.5521,47.5093
Apucarana,Brazil,-23.5508,-51.4608
So Paulo,Brazil,-23.5504,-46.6339
Itapevi,Brazil,-23.5489,-46.9342
Votorantim,Brazil,-23.5469,-47.4378
Mairinque,Brazil,-23.5464,-47.1836
Suzano,Brazil,-23.5428,-46.3108
Ferraz de Vasconcelos,Brazil,-23.5411,-46.3689
Salobe,Madagascar,-23.5333,44.7167
Osasco,Brazil,-23.5328,-46.7919
Taquarituba,Brazil,-23.5328,-49.2439
Salespolis,Brazil,-23.5319,-45.8458
Tongobory,Madagascar,-23.5317,44.3231
So Roque,Brazil,-23.5289,-47.135
Po,Brazil,-23.5286,-46.345
Jandira,Brazil,-23.5278,-46.9028
Matanga,Madagascar,-23.5238,47.5525
Mogi das Cruzes,Brazil,-23.5228,-46.1931
Carapicuba,Brazil,-23.5228,-46.8358
Mandaguari,Brazil,-23.5225,-51.6788
Emerald,Australia,-23.5208,148.1619
Barueri,Brazil,-23.5111,-46.8764
Araoiaba da Serra,Brazil,-23.5053,-47.6142
Sorocaba,Brazil,-23.5019,-47.4578
Bezaha,Madagascar,-23.5007,44.5007
Joaquim Tvora,Brazil,-23.4989,-49.905
Angatuba,Brazil,-23.4903,-48.4128
Begogo,Madagascar,-23.4866,46.7147
Itaquaquecetuba,Brazil,-23.4864,-46.3486
Marialva,Brazil,-23.485,-51.7919
Capela do Alto,Brazil,-23.4706,-47.7347
Japur,Brazil,-23.47,-52.5528
Beln,Paraguay,-23.4695,-57.24
Guarulhos,Brazil,-23.4667,-46.5333
Ambongo,Madagascar,-23.4642,47.2795
Paiandu,Brazil,-23.4575,-52.0486
Benenitra,Madagascar,-23.4522,45.0808
Tagua,Brazil,-23.4519,-49.4089
Ambohimahavelona,Madagascar,-23.4456,43.8966
Santana de Parnaba,Brazil,-23.4439,-46.9178
Longreach,Australia,-23.4422,144.2491
Gracemere,Australia,-23.4391,150.4558
Araariguama,Brazil,-23.4386,-47.0614
Ubatuba,Brazil,-23.4339,-45.0708
Estancia Pozo Colorado,Paraguay,-23.4333,-58.9667
Pozo Colorado,Paraguay,-23.43,-58.86
Ranomena,Madagascar,-23.4259,47.2817
Maring,Brazil,-23.425,-51.9389
Carlpolis,Brazil,-23.425,-49.7208
Arapongas,Brazil,-23.4189,-51.4239
Ita,Brazil,-23.4178,-49.0906
Ribeiro do Pinhal,Brazil,-23.4167,-50.35
Susques,Argentina,-23.4167,-66.4833
Guararema,Brazil,-23.415,-46.035
Rondon,Brazil,-23.4108,-52.7608
Concepcin,Paraguay,-23.4064,-57.4344
Pirapora do Bom Jesus,Brazil,-23.3972,-47.0028
Santa Branca,Brazil,-23.3969,-45.8839
Aruj,Brazil,-23.3967,-46.3211
Icarama,Brazil,-23.3958,-53.6139
Paranapanema,Brazil,-23.3886,-48.7228
Fartura,Brazil,-23.3883,-49.51
Paraibuna,Brazil,-23.3861,-45.6622
Cidade Gacha,Brazil,-23.38,-52.945
Rockhampton,Australia,-23.3781,150.5136
Guare,Brazil,-23.3728,-48.1842
Assa,Brazil,-23.3728,-50.8408
Caieiras,Brazil,-23.3642,-46.7406
Cajamar,Brazil,-23.3561,-46.8769
Tatu,Brazil,-23.3556,-47.8569
Newman,Australia,-23.3539,119.7319
Ampataka,Madagascar,-23.3527,47.465
Iper,Brazil,-23.3503,-47.6886
Toliara,Madagascar,-23.35,43.6667
Vangaindrano,Madagascar,-23.3498,47.6047
Mandaguau,Brazil,-23.3469,-52.095
Horqueta,Paraguay,-23.3396,-57.05
Tsiately,Madagascar,-23.3309,47.6101
Franco da Rocha,Brazil,-23.3286,-46.7244
Mairipor,Brazil,-23.3189,-46.5869
Vatolatsaka,Madagascar,-23.318,44.3052
Sabudia,Brazil,-23.3178,-51.5528
Pichanal,Argentina,-23.3167,-64.2167
Rehoboth,Namibia,-23.3167,17.0833
Santa Isabel,Brazil,-23.3156,-46.2214
Londrina,Brazil,-23.31,-51.1628
Giyani,South Africa,-23.31,30.7064
Rolndia,Brazil,-23.3097,-51.3692
Vohitromby,Madagascar,-23.3085,47.5316
Cabreva,Brazil,-23.3075,-47.1331
Miary,Madagascar,-23.3061,43.7288
Jacare,Brazil,-23.305,-45.9658
Santo Antnio da Platina,Brazil,-23.295,-50.0769
Boituva,Brazil,-23.2833,-47.6722
Bevata,Madagascar,-23.2833,47.2833
Soamanova,Madagascar,-23.2833,47.6
Francisco Morato,Brazil,-23.2817,-46.7425
Paraso do Norte,Brazil,-23.2808,-52.6019
Camb,Brazil,-23.2758,-51.2778
Loreto,Paraguay,-23.2747,-57.3269
Ibipor,Brazil,-23.2692,-51.0481
Betroka,Madagascar,-23.2684,46.0963
Capitn Bado,Paraguay,-23.2673,-55.5388
Itu,Brazil,-23.2642,-47.2992
Lohafary,Madagascar,-23.2552,47.4276
Jatazinho,Brazil,-23.2539,-50.98
Andranomenatsa,Madagascar,-23.25,44.6167
Astorga,Brazil,-23.2328,-51.6658
Cesrio Lange,Brazil,-23.2267,-47.9531
So Lus do Paraitinga,Brazil,-23.2219,-45.31
Paraty,Brazil,-23.2194,-44.7147
Embarcacin,Argentina,-23.2167,-64.1
Porto Feliz,Brazil,-23.215,-47.5239
Vrzea Paulista,Brazil,-23.2108,-46.8278
Campo Limpo,Brazil,-23.2064,-46.7844
Ka-Bungeni,South Africa,-23.206,30.224
Igarat,Brazil,-23.2044,-46.1561
Salto,Brazil,-23.2008,-47.2869
Humahuaca,Argentina,-23.2,-65.35
Ura,Brazil,-23.1978,-50.7958
Lopary,Madagascar,-23.1973,47.6714
Ribeiro Claro,Brazil,-23.1939,-49.7578
Piraju,Brazil,-23.1936,-49.3839
Toconao,Chile,-23.1903,-68.005
Jundia,Brazil,-23.1864,-46.8842
Mahabo-Mananivo,Madagascar,-23.1852,47.6787
Nova Esperana,Brazil,-23.1839,-52.205
Cornlio Procpio,Brazil,-23.1808,-50.6469
Nazar Paulista,Brazil,-23.1808,-46.395
So Jos dos Campos,Brazil,-23.1789,-45.8869
Porangaba,Brazil,-23.1758,-48.125
Arroyito,Paraguay,-23.1751,-56.7781
Cerquilho Velho,Brazil,-23.165,-47.7436
Jacarzinho,Brazil,-23.1606,-49.9694
Itupeva,Brazil,-23.1531,-47.0578
Santa Mariana,Brazil,-23.1499,-50.52
Andranovory,Madagascar,-23.1431,44.152
Miary-Taheza,Madagascar,-23.136,44.6272
Bom Jesus dos Perdes,Brazil,-23.135,-46.4653
San Ramn de la Nueva Orn,Argentina,-23.1333,-64.3333
Alto Paran,Brazil,-23.1289,-52.3189
Yeppoon,Australia,-23.1288,150.7444
Fenoarivo,Madagascar,-23.1246,47.5686
Atibaia,Brazil,-23.1172,-46.5506
Efatsy-Anandroza,Madagascar,-23.1146,47.6073
Jaguapit,Brazil,-23.1128,-51.5319
Bandeirantes,Brazil,-23.11,-50.3678
Mahalapye,Botswana,-23.1041,26.8142
Amamba,Brazil,-23.1039,-55.2258
Iakora,Madagascar,-23.1039,46.6566
Bofete,Brazil,-23.1022,-48.2578
Tiet,Brazil,-23.1019,-47.715
Itatinga,Brazil,-23.1017,-48.6158
Jarinu,Brazil,-23.1014,-46.7283
Caapava,Brazil,-23.1008,-45.7069
Mejillones,Chile,-23.1,-70.45
Avar,Brazil,-23.0989,-48.9258
Indaiatuba,Brazil,-23.0903,-47.2181
Louveira,Brazil,-23.0864,-46.9506
Benato-Toby,Madagascar,-23.0853,45.8581
Ankarana-Miraihina,Madagascar,-23.0849,47.6302
Querncia do Norte,Brazil,-23.0839,-53.4839
Iara,Madagascar,-23.0835,47.4372
Pereiras,Brazil,-23.0761,-47.9758
Cunha,Brazil,-23.0744,-44.9597
Paranava,Brazil,-23.0728,-52.465
Navira,Brazil,-23.065,-54.1908
Sertanpolis,Brazil,-23.0589,-51.0358
Ipauu,Brazil,-23.0569,-49.6267
Piracaia,Brazil,-23.0539,-46.3581
Andir,Brazil,-23.0508,-50.2289
Louis Trichardt,South Africa,-23.05,29.9
Cambar,Brazil,-23.0458,-50.0739
Elias Fausto,Brazil,-23.0428,-47.3739
Xavantes,Brazil,-23.0389,-49.7094
Santa F,Brazil,-23.0378,-51.805
Cerqueira Csar,Brazil,-23.0356,-49.1661
Taubat,Brazil,-23.0333,-45.55
Shoshong,Botswana,-23.0333,26.5167
Vinhedo,Brazil,-23.03,-46.975
Conchas,Brazil,-23.0134,-48.0078
Bernardino de Campos,Brazil,-23.0131,-49.4742
Laranjal Paulista,Brazil,-23.0118,-47.8657
Rafard,Brazil,-23.0117,-47.5269
Ihorombe,Madagascar,-23.0083,47.5315
Angra dos Reis,Brazil,-23.0069,-44.3178
Itatiba,Brazil,-23.0058,-46.8389
Santa Isabel do Iva,Brazil,-23.0053,-53.1878
Manduri,Brazil,-23.0033,-49.3219
Bela Vista do Paraso,Brazil,-22.9969,-51.1908
Capivari,Brazil,-22.995,-47.5078
Ourinhos,Brazil,-22.9789,-49.8708
Valinhos,Brazil,-22.9708,-46.9958
Ambalavato,Madagascar,-22.9693,47.4773
Yby Ya,Paraguay,-22.9661,-56.5407
Arraial do Cabo,Brazil,-22.9658,-42.0278
Mangaratiba,Brazil,-22.96,-44.0408
Trememb,Brazil,-22.9583,-45.5494
Ankilimalinika,Madagascar,-22.9569,43.5642
Santa Cruz do Monte Castelo,Brazil,-22.9528,-53.2969
Manombo Atsimo,Madagascar,-22.9524,43.4748
Thohoyandou,South Africa,-22.95,30.4833
Walvisbaai,Namibia,-22.9494,14.5069
Monte Mor,Brazil,-22.9467,-47.315
Marofoty,Madagascar,-22.9348,43.5408
Joanpolis,Brazil,-22.9303,-46.2756
Paranacity,Brazil,-22.93,-52.1508
Pindamonhangaba,Brazil,-22.9239,-45.4617
Loanda,Brazil,-22.9228,-53.1369
Vila Muriqui,Brazil,-22.9228,-43.9456
Saquarema,Brazil,-22.92,-42.51
Bragana Paulista,Brazil,-22.9189,-46.5425
Maric,Brazil,-22.9189,-42.8189
Rio de Janeiro,Brazil,-22.9111,-43.2056
Boulia,Australia,-22.9097,139.9066
Sakaraha,Madagascar,-22.9075,44.5303
Campinas,Brazil,-22.9009,-47.0573
Tsianisiha,Madagascar,-22.9,43.5833
Santa Cruz do Rio Pardo,Brazil,-22.8989,-49.6328
Mahaboboka,Madagascar,-22.8982,44.343
Roseira,Brazil,-22.8978,-45.305
Salto Grande,Brazil,-22.8928,-49.9858
Vargem,Brazil,-22.8889,-46.4139
Etrotroka,Madagascar,-22.8885,47.588
Botucatu,Brazil,-22.8858,-48.445
Niteri,Brazil,-22.8833,-43.1036
Morungaba,Brazil,-22.88,-46.7917
Cabo Frio,Brazil,-22.8789,-42.0189
Ivandrika,Madagascar,-22.8738,47.7259
Araruama,Brazil,-22.8728,-42.3428
Florestpolis,Brazil,-22.8628,-51.3869
Jangany,Madagascar,-22.8611,45.7922
Hortolndia,Brazil,-22.8583,-47.22
Extrema,Brazil,-22.855,-46.3178
Primeiro de Maio,Brazil,-22.8508,-51.0278
Aparecida,Brazil,-22.8469,-45.2297
Rio das Pedras,Brazil,-22.8428,-47.6058
So Pedro da Aldeia,Brazil,-22.8392,-42.1028
Iguaba Grande,Brazil,-22.8389,-42.2289
Milenaka,Madagascar,-22.8386,43.5849
Colorado,Brazil,-22.8378,-51.9728
So Gonalo,Brazil,-22.8269,-43.0539
Sumar,Brazil,-22.8219,-47.2669
Centenrio do Sul,Brazil,-22.8208,-51.595
Vondrozo,Madagascar,-22.8208,47.3198
Teniente Primero Manuel Irala Fernndez,Paraguay,-22.8174,-59.582
Guaratinguet,Brazil,-22.8167,-45.2278
Farafangana,Madagascar,-22.8166,47.8332
Mahatsinjo,Madagascar,-22.8125,47.4513
Palmital,Brazil,-22.7889,-50.2175
Pinhalzinho,Brazil,-22.78,-46.57
Alvorada do Sul,Brazil,-22.78,-51.2308
Nova Odessa,Brazil,-22.7797,-47.2962
Itapeva,Brazil,-22.7678,-46.2208
Ankililoaka,Madagascar,-22.7674,43.6159
Nova Londrina,Brazil,-22.7658,-52.985
Paulnia,Brazil,-22.7611,-47.1542
Porecatu,Brazil,-22.7558,-51.3789
Camanducaia,Brazil,-22.755,-46.145
Santa Brbara dOeste,Brazil,-22.7539,-47.4139
Manambidala,Madagascar,-22.75,47.2667
Itabora,Brazil,-22.7475,-42.8558
Armao dos Bzios,Brazil,-22.7469,-41.8819
Tarum,Brazil,-22.7469,-50.5769
Cndido Mota,Brazil,-22.7464,-50.3869
Seropdica,Brazil,-22.7439,-43.7078
Pedreira,Brazil,-22.7419,-46.9014
Iguau,Brazil,-22.74,-43.47
Campos do Jordo,Brazil,-22.7394,-45.5914
Americana,Brazil,-22.7392,-47.3314
Anosivelo,Madagascar,-22.7371,47.7803
Bermejo,Bolivia,-22.7322,-64.3425
Lorena,Brazil,-22.7308,-45.1247
So Manuel,Brazil,-22.7308,-48.5708
Mapai,Mozambique,-22.7306,32.0583
Tangu,Brazil,-22.73,-42.7139
Piracicaba,Brazil,-22.7252,-47.6493
Rio Claro,Brazil,-22.7228,-44.1358
Tsararafa,Madagascar,-22.7196,47.7996
Abra Pampa,Argentina,-22.7167,-65.7
Terra Rica,Brazil,-22.7089,-52.6169
Maropaika,Madagascar,-22.7088,46.9758
Rio Bonito,Brazil,-22.7078,-42.6258
Amparo,Brazil,-22.7031,-46.765
Tangainony,Madagascar,-22.6945,47.7444
Tom Price,Australia,-22.6939,117.795
So Bento do Sapuca,Brazil,-22.6889,-45.7308
Bananal,Brazil,-22.6839,-44.3228
Jaguarina,Brazil,-22.68,-46.99
Monte Alegre do Sul,Brazil,-22.68,-46.68
Amboronabo,Madagascar,-22.6759,44.388
Areipolis,Brazil,-22.6681,-48.665
Swakopmund,Namibia,-22.6667,14.5333
Cachoeira Paulista,Brazil,-22.665,-45.0094
Assis,Brazil,-22.6619,-50.4119
Mag,Brazil,-22.6528,-43.0408
Silva Jardim,Brazil,-22.6508,-42.3919
Cosmpolis,Brazil,-22.6458,-47.1961
Japeri,Brazil,-22.6431,-43.6533
Puerto Pinasco,Paraguay,-22.64,-57.79
Carap,Brazil,-22.6339,-54.8219
Pira,Brazil,-22.6287,-43.8982
Piquete,Brazil,-22.6136,-45.1761
Serra Negra,Brazil,-22.6119,-46.7008
Cambu,Brazil,-22.6119,-46.0578
Maraca,Brazil,-22.6106,-50.6672
Paracambi,Brazil,-22.6083,-43.7083
Santo Antnio de Posse,Brazil,-22.6058,-46.9189
General Enrique Mosconi,Argentina,-22.6,-63.8167
Evato,Madagascar,-22.6,47.6833
Lenis Paulista,Brazil,-22.5986,-48.8003
Socorro,Brazil,-22.5908,-46.5289
Iracempolis,Brazil,-22.5808,-47.5189
Cruzeiro,Brazil,-22.5772,-44.9583
Artur Nogueira,Brazil,-22.5731,-47.1725
Windhoek,Namibia,-22.57,17.0836
Limeira,Brazil,-22.5647,-47.4017
Paraispolis,Brazil,-22.5539,-45.78
Palapye,Botswana,-22.55,27.1333
Engenheiro Paulo de Frontin,Brazil,-22.55,-43.6778
So Pedro,Brazil,-22.5486,-47.9139
Pedro Juan Caballero,Paraguay,-22.5446,-55.76
Barra Mansa,Brazil,-22.5439,-44.1708
Vohilengo,Madagascar,-22.5438,47.6944
Queluz,Brazil,-22.5372,-44.7742
Guapimirim,Brazil,-22.5369,-42.9819
Ambalatany,Madagascar,-22.5364,47.5881
Ponta Por,Brazil,-22.5361,-55.7256
Teodoro Sampaio,Brazil,-22.5325,-52.1675
Rio das Ostras,Brazil,-22.5269,-41.945
Mendes,Brazil,-22.5269,-43.7328
Ambatolahy,Madagascar,-22.5268,46.0083
Volta Redonda,Brazil,-22.5231,-44.1042
Sahamadio,Madagascar,-22.5208,47.5766
Marovandrika,Madagascar,-22.5191,47.6665
Pinheiral,Brazil,-22.5128,-44.0008
Charqueada,Brazil,-22.5097,-47.7781
Igarau do Tiet,Brazil,-22.5092,-48.5578
Petrpolis,Brazil,-22.505,-43.1789
Macatuba,Brazil,-22.5022,-48.7114
Tartagal,Argentina,-22.5,-63.8333
Barra Bonita,Brazil,-22.4947,-48.5581
Itatiaia,Brazil,-22.4914,-44.5592
Amporoforo,Madagascar,-22.4884,47.7925
Ranohira,Madagascar,-22.4842,45.3942
Cordeirpolis,Brazil,-22.4819,-47.4569
Casimiro de Abreu,Brazil,-22.4808,-42.2039
Analamisampy,Madagascar,-22.4767,43.6617
guas de Lindia,Brazil,-22.4758,-46.6328
Agudos,Brazil,-22.4739,-48.9836
Brazpolis,Brazil,-22.4739,-45.6078
Bom Repouso,Brazil,-22.4708,-46.145
Barra do Pira,Brazil,-22.47,-43.8258
Resende,Brazil,-22.4689,-44.4469
Calama,Chile,-22.4667,-68.9333
Cachoeiras de Macacu,Brazil,-22.4628,-42.6528
Estiva,Brazil,-22.4628,-46.0169
Santa Gertrudes,Brazil,-22.4569,-47.53
Miguel Pereira,Brazil,-22.4539,-43.4689
Gobabis,Namibia,-22.45,18.9667
Bueno Brando,Brazil,-22.4408,-46.3508
Itapira,Brazil,-22.4361,-46.8217
Rinconada,Argentina,-22.4333,-66.1667
Monte Sio,Brazil,-22.4328,-46.5728
Mogi Mirim,Brazil,-22.4319,-46.9578
Karianga,Madagascar,-22.4291,47.372
Pati do Alferes,Brazil,-22.4289,-43.4189
Itajub,Brazil,-22.4258,-45.4528
Torrinha,Brazil,-22.4258,-48.1689
Porto Real,Brazil,-22.42,-44.29
Paraguau Paulista,Brazil,-22.4197,-50.5797
Duartina,Brazil,-22.4144,-49.4039
Vohindava,Madagascar,-22.4139,47.8634
Conceio dos Ouros,Brazil,-22.4128,-45.7978
Piratininga,Brazil,-22.4128,-49.135
Terespolis,Brazil,-22.4119,-42.9658
Rio Claro,Brazil,-22.4108,-47.5608
Mineiros do Tiet,Brazil,-22.4089,-48.4508
Quatis,Brazil,-22.4069,-44.2578
Vassouras,Brazil,-22.4039,-43.6628
Piranguinho,Brazil,-22.4008,-45.5319
Ihosy,Madagascar,-22.3996,46.1167
Winton,Australia,-22.3913,143.0381
Ifatsy,Madagascar,-22.3902,47.7359
Passa Quatro,Brazil,-22.39,-44.9669
Ankily,Madagascar,-22.3837,46.0956
Serowe,Botswana,-22.3833,26.7167
Loma Plata,Paraguay,-22.382,-59.8325
Vohitrindry,Madagascar,-22.3751,47.8362
Mogi Guau,Brazil,-22.3719,-46.9419
Maca,Brazil,-22.3708,-41.7869
Dois Crregos,Brazil,-22.3661,-48.3803
Araras,Brazil,-22.3569,-47.3839
Vohipeno,Madagascar,-22.3569,47.8407
Cachoeira de Minas,Brazil,-22.355,-45.7789
Pederneiras,Brazil,-22.3517,-48.775
Ilakatra,Madagascar,-22.3495,47.6696
Oficina Mara Elena,Chile,-22.3451,-69.6615
Filadelfia,Paraguay,-22.34,-60.03
Musina,South Africa,-22.3381,30.0417
Virgnia,Brazil,-22.3328,-45.0919
Conchal,Brazil,-22.33,-47.1728
Mahazoarivo,Madagascar,-22.3254,47.5691
Chuquicamata,Chile,-22.3169,-68.9301
Bauru,Brazil,-22.3147,-49.0606
Antambohobe,Madagascar,-22.3119,46.7751
Nato,Madagascar,-22.3089,47.8296
Maria da F,Brazil,-22.3078,-45.375
Ja,Brazil,-22.2958,-48.5578
Itanhandu,Brazil,-22.2958,-44.935
Bataipor,Brazil,-22.2953,-53.2711
Lanivo,Madagascar,-22.294,47.8148
Mirante do Paranapanema,Brazil,-22.2919,-51.9064
Kalafotsy,Madagascar,-22.2912,47.3149
Puerto Casado,Paraguay,-22.2896,-57.94
Maroteza,Madagascar,-22.2863,47.1904
Jacutinga,Brazil,-22.2858,-46.6119
Brotas,Brazil,-22.2839,-48.1269
Itamonte,Brazil,-22.2839,-44.87
Mont-Dore,New Caledonia,-22.2833,166.5833
Ouro Fino,Brazil,-22.2828,-46.3689
Nova Friburgo,Brazil,-22.2819,-42.5308
Andemaka,Madagascar,-22.2779,47.7522
Pirapzinho,Brazil,-22.2753,-51.5
Borda da Mata,Brazil,-22.2739,-46.165
Estiva Gerbi,Brazil,-22.2708,-46.945
Nouma,New Caledonia,-22.2625,166.4443
Itirapina,Brazil,-22.2528,-47.8228
Santa Rita do Sapuca,Brazil,-22.2519,-45.7028
Quat,Brazil,-22.2475,-50.6983
Antanimieva,Madagascar,-22.2457,43.7711
Valena,Brazil,-22.2456,-43.7003
Pedralva,Brazil,-22.2428,-45.4658
Itapu,Brazil,-22.2333,-48.7192
Vatana,Madagascar,-22.2323,47.7464
Areal,Brazil,-22.2308,-43.1058
Rancharia,Brazil,-22.2289,-50.8928
Pouso Alegre,Brazil,-22.2281,-45.9336
Dourados,Brazil,-22.2208,-54.8058
Regente Feij,Brazil,-22.2208,-51.3028
Vera Cruz,Brazil,-22.22,-49.8189
Beitbridge,Zimbabwe,-22.2167,30.0
Gara,Brazil,-22.2153,-49.6511
Marlia,Brazil,-22.2139,-49.9458
Cristina,Brazil,-22.2119,-45.2639
Zazafotsy,Madagascar,-22.2056,46.3611
Ambahive,Madagascar,-22.2,47.7167
Sakoabe,Madagascar,-22.1937,47.8396
Ifanirea,Madagascar,-22.1924,47.4741
Pinhal,Brazil,-22.1908,-46.7408
Carapebus,Brazil,-22.1869,-41.6608
Leme,Brazil,-22.1858,-47.39
Lokomby,Madagascar,-22.1826,47.7463
Basibasy,Madagascar,-22.1767,43.6595
Rio das Flores,Brazil,-22.1678,-43.5858
Paraba do Sul,Brazil,-22.1619,-43.2928
Dumba,New Caledonia,-22.1576,166.4572
Congonhal,Brazil,-22.1528,-46.0389
Ambalaroka,Madagascar,-22.1522,47.7293
Bom Jardim,Brazil,-22.1519,-42.4189
So Jos do Rio Preto,Brazil,-22.1508,-42.9239
Antadinga,Madagascar,-22.1469,47.4276
Martinpolis,Brazil,-22.1461,-51.1709
Befandefa,Madagascar,-22.146,43.3035
Manakara,Madagascar,-22.1455,48.008
Bocaina,Brazil,-22.1361,-48.5181
Bella Vista,Paraguay,-22.1296,-56.52
Pata,New Caledonia,-22.1289,166.369
Presidente Prudente,Brazil,-22.1258,-51.3889
Carmo de Minas,Brazil,-22.1219,-45.1289
Trs Rios,Brazil,-22.1169,-43.2089
So Loureno,Brazil,-22.1158,-45.0539
Bela Vista,Brazil,-22.1089,-56.5208
Pompia,Brazil,-22.1089,-50.1719
San Lzaro,Paraguay,-22.1074,-57.9622
Quissam,Brazil,-22.1069,-41.4719
Vohimasy,Madagascar,-22.1067,47.7938
La Quiaca,Argentina,-22.1042,-65.5972
Befandriana Atsimo,Madagascar,-22.1033,43.8927
Sorombo,Madagascar,-22.1,47.9167
Bekatra Maromiandra,Madagascar,-22.0994,47.7187
Ipuina,Brazil,-22.0989,-46.19
Villazn,Bolivia,-22.0911,-65.5961
Tocopilla,Chile,-22.0889,-70.1958
Miarinarivo,Madagascar,-22.0877,47.0576
Conceio de Macabu,Brazil,-22.085,-41.8678
Tandrano,Madagascar,-22.0843,44.6385
Itapor,Brazil,-22.0789,-54.7889
lvares Machado,Brazil,-22.0789,-51.4719
Bariri,Brazil,-22.0744,-48.7403
Andradas,Brazil,-22.0678,-46.5689
Ribeiro Bonito,Brazil,-22.0669,-48.1758
Trajano de Morais,Brazil,-22.0628,-42.0658
Antanankambano,Madagascar,-22.0606,47.4764
Agua,Brazil,-22.0603,-46.9736
Sahalanona,Madagascar,-22.0551,47.6175
Duas Barras,Brazil,-22.0508,-42.5219
Profesor Salvador Mazza,Argentina,-22.05,-63.7
Sumidouro,Brazil,-22.05,-42.675
Vohitsaoka,Madagascar,-22.0357,46.7262
Mariscal Jos Flix Estigarribia,Paraguay,-22.03,-60.61
Cordeiro,Brazil,-22.0289,-42.3608
Comendador Levy Gasparian,Brazil,-22.0289,-43.205
Arealva,Brazil,-22.0286,-48.9111
So Carlos,Brazil,-22.0178,-47.8908
Yacuiba,Bolivia,-22.0153,-63.6772
Anorombato,Madagascar,-22.0143,47.7915
Vinanitelo,Madagascar,-22.0142,47.739
Presidente Bernardes,Brazil,-22.0061,-51.5531
Amboanjo,Madagascar,-22.0041,47.8564
Herculndia,Brazil,-22.0036,-50.3853
Sendrisoa,Madagascar,-22.003,46.9529
Ambila,Madagascar,-22.0029,47.9721
Moranbah,Australia,-22.0016,148.0533
Vilankulo,Mozambique,-22.0,35.3167
Usakos,Namibia,-22.0,15.6
Piraju,Brazil,-21.9989,-49.4569
Piraununga,Brazil,-21.9961,-47.4258
Sapucaia,Brazil,-21.995,-42.9139
Mahazony,Madagascar,-21.9942,47.0146
Boa Esperana do Sul,Brazil,-21.9925,-48.3908
Cantagalo,Brazil,-21.9808,-42.3678
Okahandja,Namibia,-21.9796,16.91
Caxambu,Brazil,-21.9769,-44.9328
Santo Anastcio,Brazil,-21.9769,-51.6519
Lambari,Brazil,-21.9758,-45.35
So Joo da Boa Vista,Brazil,-21.9689,-46.7978
Selibe Phikwe,Botswana,-21.9667,27.9167
Bobonong,Botswana,-21.9655,28.4363
Ambolomadinika,Madagascar,-21.9645,47.4405
Baependi,Brazil,-21.9589,-44.89
Ibat,Brazil,-21.955,-47.9969
Santa Maria Madalena,Brazil,-21.955,-42.0078
Sahasoa,Madagascar,-21.948,45.9891
Karibib,Namibia,-21.939,15.853
Tup,Brazil,-21.935,-50.5139
Ambohimahamasina,Madagascar,-21.9339,47.1858
Carmo,Brazil,-21.9339,-42.6089
Exmouth,Australia,-21.9331,114.1281
Caldas,Brazil,-21.9239,-46.3858
Amborondra,Madagascar,-21.918,47.7726
Bastos,Brazil,-21.9167,-50.7333
Ambinanindovoka,Madagascar,-21.9167,47.1
Descalvado,Brazil,-21.9039,-47.6189
So Gonalo do Sapuca,Brazil,-21.8919,-45.595
Iacanga,Brazil,-21.89,-49.0247
Ambohimandroso,Madagascar,-21.8886,46.9604
Alm Paraba,Brazil,-21.8878,-42.7039
Conceio do Rio Verde,Brazil,-21.8808,-45.085
Ikongo,Madagascar,-21.8789,47.435
Mmadinare,Botswana,-21.8765,27.7518
Presidente Venceslau,Brazil,-21.8761,-51.8439
Matias Barbosa,Brazil,-21.8689,-43.3189
Mar de Espanha,Brazil,-21.8669,-43.01
Ambahatrazo,Madagascar,-21.8586,47.9047
Cambuquira,Brazil,-21.8583,-45.2911
Prto Ferreira,Brazil,-21.8539,-47.4789
Lima Duarte,Brazil,-21.8428,-43.7928
Campanha,Brazil,-21.8389,-45.3997
Cruzlia,Brazil,-21.8389,-44.8078
Kirano,Madagascar,-21.8333,47.05
Vargem Grande do Sul,Brazil,-21.8322,-46.8936
Ambalavao,Madagascar,-21.8295,46.9402
Iarintsena,Madagascar,-21.8279,46.8813
Santa Cruz das Palmeiras,Brazil,-21.8269,-47.2489
Ambalavero,Madagascar,-21.8115,47.7827
Behisatse,Madagascar,-21.8062,45.1226
Cafelndia,Brazil,-21.8025,-49.61
Rio Brilhante,Brazil,-21.8019,-54.5458
Getulina,Brazil,-21.7986,-49.9286
Osvaldo Cruz,Brazil,-21.7967,-50.8786
Araraquara,Brazil,-21.7939,-48.1758
Mavorano,Madagascar,-21.7912,47.9456
Poos de Caldas,Brazil,-21.7878,-46.5608
Belemoka,Madagascar,-21.7823,47.606
Poo Fundo,Brazil,-21.7808,-45.965
Nova Europa,Brazil,-21.7783,-48.5608
Vohimasina,Madagascar,-21.7766,48.1187
Casa Branca,Brazil,-21.7739,-47.0858
Parapu,Brazil,-21.7681,-50.7717
Vohilava,Madagascar,-21.7661,47.9104
Juiz de Fora,Brazil,-21.7642,-43.3503
Presidente Epitcio,Brazil,-21.7633,-52.1156
Ambatofotsy,Madagascar,-21.762,47.4894
Ibitinga,Brazil,-21.7578,-48.8289
Mahamaibe,Madagascar,-21.7551,47.8857
Campos,Brazil,-21.7523,-41.3304
Ambotaka,Madagascar,-21.752,48.0513
Mahaditra,Madagascar,-21.75,47.1
Mahabako,Madagascar,-21.749,47.7141
Andrelndia,Brazil,-21.74,-44.3089
Morombe,Madagascar,-21.7391,43.3657
Ampasimanjeva,Madagascar,-21.7368,48.0384
Amrico Brasiliense,Brazil,-21.7361,-48.1114
Mitanty,Madagascar,-21.7284,47.9989
Rinpolis,Brazil,-21.7258,-50.7219
Bicas,Brazil,-21.725,-43.0589
Luclia,Brazil,-21.7203,-51.0189
Tabatinga,Brazil,-21.7169,-48.6878
Vinanitelo,Madagascar,-21.7167,47.2667
Bataguau,Brazil,-21.7139,-52.4219
Ankiliabo,Madagascar,-21.713,43.8931
Campestre,Brazil,-21.7108,-46.2458
So Sebastio da Grama,Brazil,-21.7108,-46.8208
Santa Rita do Passa Quatro,Brazil,-21.71,-47.4778
Tamba,Brazil,-21.705,-47.2739
Maromiandra,Madagascar,-21.7038,47.5196
Ghanzi,Botswana,-21.7,21.65
Prto Murtinho,Brazil,-21.6989,-57.8828
Trs Coraes,Brazil,-21.6947,-45.2553
Adamantina,Brazil,-21.6847,-51.0733
Itaocara,Brazil,-21.6789,-42.0819
Lins,Brazil,-21.6786,-49.7425
Machado,Brazil,-21.675,-45.92
Ambinanintromby,Madagascar,-21.6729,47.524
Anteza,Madagascar,-21.6717,47.8446
Saharefo,Madagascar,-21.6713,47.6888
Vohitrafeno,Madagascar,-21.6667,47.2167
Divinolndia,Brazil,-21.6614,-46.7392
Pirapetinga,Brazil,-21.6558,-42.3458
Manampatrana,Madagascar,-21.65,47.5833
So Fidlis,Brazil,-21.6458,-41.7469
Namorona,Madagascar,-21.6427,48.1853
Alakamisy Itenina,Madagascar,-21.6425,47.1598
Botelhos,Brazil,-21.6424,-46.3937
So Joo da Barra,Brazil,-21.64,-41.0508
Onslow,Australia,-21.64,115.11
Pannawonica,Australia,-21.6333,116.3333
Lamosina,Madagascar,-21.633,46.8056
Vohimarina,Madagascar,-21.6321,46.9045
Andranovorivato,Madagascar,-21.6293,46.9897
Guaiara,Brazil,-21.6219,-49.7986
Aperib,Brazil,-21.6208,-42.1028
Borborema,Brazil,-21.62,-49.0739
Maracaju,Brazil,-21.6139,-55.1678
Eli Mendes,Brazil,-21.61,-45.565
Ambahikily,Madagascar,-21.605,43.6748
Mato,Brazil,-21.6033,-48.3658
So Jos do Rio Pardo,Brazil,-21.5958,-46.8889
Itpolis,Brazil,-21.5958,-48.8128
Mahasoabe,Madagascar,-21.5895,47.2204
Rinco,Brazil,-21.5869,-48.0708
Cambuci,Brazil,-21.575,-41.9108
Tanamarina,Madagascar,-21.5717,45.9365
Pacaembu,Brazil,-21.5622,-51.2606
Tolongoina,Madagascar,-21.5595,47.5127
